%time,field.header.seq,field.header.stamp,field.header.frame_id,field.orientation.x,field.orientation.y,field.orientation.z,field.orientation.w,field.orientation_covariance0,field.orientation_covariance1,field.orientation_covariance2,field.orientation_covariance3,field.orientation_covariance4,field.orientation_covariance5,field.orientation_covariance6,field.orientation_covariance7,field.orientation_covariance8,field.angular_velocity.x,field.angular_velocity.y,field.angular_velocity.z,field.angular_velocity_covariance0,field.angular_velocity_covariance1,field.angular_velocity_covariance2,field.angular_velocity_covariance3,field.angular_velocity_covariance4,field.angular_velocity_covariance5,field.angular_velocity_covariance6,field.angular_velocity_covariance7,field.angular_velocity_covariance8,field.linear_acceleration.x,field.linear_acceleration.y,field.linear_acceleration.z,field.linear_acceleration_covariance0,field.linear_acceleration_covariance1,field.linear_acceleration_covariance2,field.linear_acceleration_covariance3,field.linear_acceleration_covariance4,field.linear_acceleration_covariance5,field.linear_acceleration_covariance6,field.linear_acceleration_covariance7,field.linear_acceleration_covariance8
1680087726251503823,210,1680087726250297069,imu_of_uwb_link,0.0,0.0,0.0218148850346,0.99976202708,0.0,0.0,0.0,0.0,0.0,0.0,0.0,0.0,0.0,-0.016704,-0.001108,0.038581,0.0,0.0,0.0,0.0,0.0,0.0,0.0,0.0,0.0,-2.288965,-0.102998,9.352588,0.0,0.0,0.0,0.0,0.0,0.0,0.0,0.0,0.0
1680087726501822468,211,1680087726501226902,imu_of_uwb_link,0.0,0.0,0.0218148850346,0.99976202708,0.0,0.0,0.0,0.0,0.0,0.0,0.0,0.0,0.0,-0.061393,-0.001108,0.01996,0.0,0.0,0.0,0.0,0.0,0.0,0.0,0.0,0.0,-2.296142,-0.323115,9.491358,0.0,0.0,0.0,0.0,0.0,0.0,0.0,0.0,0.0
1680087726751091166,212,1680087726750546932,imu_of_uwb_link,0.0,0.0,0.0218148850346,0.99976202708,0.0,0.0,0.0,0.0,0.0,0.0,0.0,0.0,0.0,-0.048093,0.016448,0.060393,0.0,0.0,0.0,0.0,0.0,0.0,0.0,0.0,0.0,-2.29375,-0.114961,9.441113,0.0,0.0,0.0,0.0,0.0,0.0,0.0,0.0,0.0
1680087727001045281,213,1680087727000510931,imu_of_uwb_link,0.0,0.0,0.0218148850346,0.99976202708,0.0,0.0,0.0,0.0,0.0,0.0,0.0,0.0,0.0,-0.005,0.009,0.004,0.0,0.0,0.0,0.0,0.0,0.0,0.0,0.0,0.0,-0.15,0.22,0.0,0.0,0.0,0.0,0.0,0.0,0.0,0.0,0.0,0.0
1680087727251990645,214,1680087727250638961,imu_of_uwb_link,0.0,0.0,0.0218148850346,0.99976202708,0.0,0.0,0.0,0.0,0.0,0.0,0.0,0.0,0.0,-0.011384,0.005276,0.032729,0.0,0.0,0.0,0.0,0.0,0.0,0.0,0.0,0.0,-2.269824,-0.332686,9.534424,0.0,0.0,0.0,0.0,0.0,0.0,0.0,0.0,0.0
1680087727502775385,215,1680087727501027107,imu_of_uwb_link,0.0,0.0,0.0218148850346,0.99976202708,0.0,0.0,0.0,0.0,0.0,0.0,0.0,0.0,0.0,0.138643,-0.071334,-0.041753,0.0,0.0,0.0,0.0,0.0,0.0,0.0,0.0,0.0,-2.477979,0.193682,9.194677,0.0,0.0,0.0,0.0,0.0,0.0,0.0,0.0,0.0
1680087727751054916,216,1680087727750540018,imu_of_uwb_link,0.0,0.0,0.0218148850346,0.99976202708,0.0,0.0,0.0,0.0,0.0,0.0,0.0,0.0,0.0,0.038093,-0.011748,0.020492,0.0,0.0,0.0,0.0,0.0,0.0,0.0,0.0,0.0,-2.13584,0.30374,9.017627,0.0,0.0,0.0,0.0,0.0,0.0,0.0,0.0,0.0
1680087728001388145,217,1680087728000560045,imu_of_uwb_link,0.0,0.0,0.0218148850346,0.99976202708,0.0,0.0,0.0,0.0,0.0,0.0,0.0,0.0,0.0,-0.032665,0.01166,-0.000788,0.0,0.0,0.0,0.0,0.0,0.0,0.0,0.0,0.0,-2.181299,-0.07668,9.687549,0.0,0.0,0.0,0.0,0.0,0.0,0.0,0.0,0.0
1680087728254392520,218,1680087728251179933,imu_of_uwb_link,0.0,0.0,0.0218148850346,0.99976202708,0.0,0.0,0.0,0.0,0.0,0.0,0.0,0.0,0.0,-0.159816,0.082418,0.033261,0.0,0.0,0.0,0.0,0.0,0.0,0.0,0.0,0.0,-2.231543,-0.370967,9.388476,0.0,0.0,0.0,0.0,0.0,0.0,0.0,0.0,0.0
1680087728501672884,219,1680087728500839948,imu_of_uwb_link,0.0,0.0,0.0218148850346,0.99976202708,0.0,0.0,0.0,0.0,0.0,0.0,0.0,0.0,0.0,0.107255,-0.122939,-0.038029,0.0,0.0,0.0,0.0,0.0,0.0,0.0,0.0,0.0,-2.044922,-0.260908,9.673193,0.0,0.0,0.0,0.0,0.0,0.0,0.0,0.0,0.0
1680087728751720592,220,1680087728751071929,imu_of_uwb_link,0.0,0.0,0.0218148850346,0.99976202708,0.0,0.0,0.0,0.0,0.0,0.0,0.0,0.0,0.0,0.021069,0.02762,0.064649,0.0,0.0,0.0,0.0,0.0,0.0,0.0,0.0,0.0,-2.544971,-0.174775,9.359766,0.0,0.0,0.0,0.0,0.0,0.0,0.0,0.0,0.0
1680087729003382519,221,1680087729001308917,imu_of_uwb_link,0.0,0.0,0.0218148850346,0.99976202708,0.0,0.0,0.0,0.0,0.0,0.0,0.0,0.0,0.0,-0.043305,-0.013345,0.0173,0.0,0.0,0.0,0.0,0.0,0.0,0.0,0.0,0.0,-2.217188,-0.117354,9.450684,0.0,0.0,0.0,0.0,0.0,0.0,0.0,0.0,0.0
1680087729251094446,222,1680087729250432014,imu_of_uwb_link,0.0,0.0,0.0218148850346,0.99976202708,0.0,0.0,0.0,0.0,0.0,0.0,0.0,0.0,0.0,0.083846,-0.044733,-0.026325,0.0,0.0,0.0,0.0,0.0,0.0,0.0,0.0,0.0,-2.511475,0.186504,9.352588,0.0,0.0,0.0,0.0,0.0,0.0,0.0,0.0,0.0
1680087729501600644,223,1680087729500961065,imu_of_uwb_link,0.0,0.0,0.0218148850346,0.99976202708,0.0,0.0,0.0,0.0,0.0,0.0,0.0,0.0,0.0,0.049265,-0.00164,-0.021537,0.0,0.0,0.0,0.0,0.0,0.0,0.0,0.0,0.0,-2.233935,-0.004902,9.510498,0.0,0.0,0.0,0.0,0.0,0.0,0.0,0.0,0.0
1680087729751217988,224,1680087729750649929,imu_of_uwb_link,0.0,0.0,0.0218148850346,0.99976202708,0.0,0.0,0.0,0.0,0.0,0.0,0.0,0.0,0.0,-0.001808,-0.016537,-0.026857,0.0,0.0,0.0,0.0,0.0,0.0,0.0,0.0,0.0,-2.281787,0.200859,9.433935,0.0,0.0,0.0,0.0,0.0,0.0,0.0,0.0,0.0
1680087730001025904,225,1680087730000500917,imu_of_uwb_link,0.0,0.0,0.0218148850346,0.99976202708,0.0,0.0,0.0,0.0,0.0,0.0,0.0,0.0,0.0,-0.001808,0.002616,0.028473,0.0,0.0,0.0,0.0,0.0,0.0,0.0,0.0,0.0,-2.174121,0.074053,9.486572,0.0,0.0,0.0,0.0,0.0,0.0,0.0,0.0,0.0
1680087730251701113,226,1680087730250715017,imu_of_uwb_link,0.0,0.0,0.0218148850346,0.99976202708,0.0,0.0,0.0,0.0,0.0,0.0,0.0,0.0,0.0,0.028517,-0.002704,-0.015152,0.0,0.0,0.0,0.0,0.0,0.0,0.0,0.0,0.0,-2.21958,0.243926,9.256885,0.0,0.0,0.0,0.0,0.0,0.0,0.0,0.0,0.0
1680087730501457779,227,1680087730500490903,imu_of_uwb_link,0.0,0.0,0.0218148850346,0.99976202708,0.0,0.0,0.0,0.0,0.0,0.0,0.0,0.0,0.0,-0.039049,-0.045265,-0.00132,0.0,0.0,0.0,0.0,0.0,0.0,0.0,0.0,0.0,-2.391846,-0.009687,9.393262,0.0,0.0,0.0,0.0,0.0,0.0,0.0,0.0,0.0
1680087730756482935,228,1680087730751166105,imu_of_uwb_link,0.0,0.0,0.0218148850346,0.99976202708,0.0,0.0,0.0,0.0,0.0,0.0,0.0,0.0,0.0,-0.029473,0.00102,0.004532,0.0,0.0,0.0,0.0,0.0,0.0,0.0,0.0,0.0,-2.363135,-0.016865,9.374121,0.0,0.0,0.0,0.0,0.0,0.0,0.0,0.0,0.0
1680087731005192779,229,1680087731002011060,imu_of_uwb_link,0.0,0.0,0.0218148850346,0.99976202708,0.0,0.0,0.0,0.0,0.0,0.0,0.0,0.0,0.0,-0.061925,0.009,0.028473,0.0,0.0,0.0,0.0,0.0,0.0,0.0,0.0,0.0,-2.22915,0.004668,9.455469,0.0,0.0,0.0,0.0,0.0,0.0,0.0,0.0,0.0
1680087731251003092,230,1680087731250478029,imu_of_uwb_link,0.0,0.0,0.0218148850346,0.99976202708,0.0,0.0,0.0,0.0,0.0,0.0,0.0,0.0,0.0,-0.128959,0.039857,-0.002916,0.0,0.0,0.0,0.0,0.0,0.0,0.0,0.0,0.0,-2.29375,-0.280049,9.498535,0.0,0.0,0.0,0.0,0.0,0.0,0.0,0.0,0.0
1680087731501061946,231,1680087731500485897,imu_of_uwb_link,0.0,0.0,0.0218148850346,0.99976202708,0.0,0.0,0.0,0.0,0.0,0.0,0.0,0.0,0.0,0.006172,-0.020261,-0.013024,0.0,0.0,0.0,0.0,0.0,0.0,0.0,0.0,0.0,-2.248291,-0.299189,9.56792,0.0,0.0,0.0,0.0,0.0,0.0,0.0,0.0,0.0
1680087731751358873,232,1680087731750596046,imu_of_uwb_link,0.0,0.0,0.0218148850346,0.99976202708,0.0,0.0,0.0,0.0,0.0,0.0,0.0,0.0,0.0,0.08225,-0.049521,0.019428,0.0,0.0,0.0,0.0,0.0,0.0,0.0,0.0,0.0,-2.379883,-0.136494,9.472217,0.0,0.0,0.0,0.0,0.0,0.0,0.0,0.0,0.0
1680087732001324029,233,1680087732000614881,imu_of_uwb_link,0.0,0.0,0.0218148850346,0.99976202708,0.0,0.0,0.0,0.0,0.0,0.0,0.0,0.0,0.0,-0.002872,0.010596,0.052413,0.0,0.0,0.0,0.0,0.0,0.0,0.0,0.0,0.0,-2.253076,0.023809,9.297559,0.0,0.0,0.0,0.0,0.0,0.0,0.0,0.0,0.0
1680087732252393612,234,1680087732251682996,imu_of_uwb_link,0.0,0.0,0.0218148850346,0.99976202708,0.0,0.0,0.0,0.0,0.0,0.0,0.0,0.0,0.0,-0.032665,-0.003768,0.008788,0.0,0.0,0.0,0.0,0.0,0.0,0.0,0.0,0.0,-2.257861,-0.143672,9.347803,0.0,0.0,0.0,0.0,0.0,0.0,0.0,0.0,0.0
1680087732501483924,235,1680087732500847101,imu_of_uwb_link,0.0,0.0,0.0218148850346,0.99976202708,0.0,0.0,0.0,0.0,0.0,0.0,0.0,0.0,0.0,-0.040113,0.014852,-0.023665,0.0,0.0,0.0,0.0,0.0,0.0,0.0,0.0,0.0,-2.425342,-0.105391,9.398046,0.0,0.0,0.0,0.0,0.0,0.0,0.0,0.0,0.0
1680087732752561164,236,1680087732751010894,imu_of_uwb_link,0.0,0.0,0.0218148850346,0.99976202708,0.0,0.0,0.0,0.0,0.0,0.0,0.0,0.0,0.0,-0.045433,-0.043137,0.038581,0.0,0.0,0.0,0.0,0.0,0.0,0.0,0.0,0.0,-2.13584,-0.366182,9.572705,0.0,0.0,0.0,0.0,0.0,0.0,0.0,0.0,0.0
1680087733002646737,237,1680087733000427007,imu_of_uwb_link,0.0,0.0,0.0218148850346,0.99976202708,0.0,0.0,0.0,0.0,0.0,0.0,0.0,0.0,0.0,-0.037985,-0.00164,0.049753,0.0,0.0,0.0,0.0,0.0,0.0,0.0,0.0,0.0,-2.253076,-0.105391,9.398046,0.0,0.0,0.0,0.0,0.0,0.0,0.0,0.0,0.0
1680087733251719237,238,1680087733250224113,imu_of_uwb_link,0.0,0.0,0.0218148850346,0.99976202708,0.0,0.0,0.0,0.0,0.0,0.0,0.0,0.0,0.0,-0.005,0.009,0.004,0.0,0.0,0.0,0.0,0.0,0.0,0.0,0.0,0.0,-0.15,0.22,0.0,0.0,0.0,0.0,0.0,0.0,0.0,0.0,0.0,0.0
1680087733502728507,239,1680087733502188920,imu_of_uwb_link,0.0,0.0,0.0218148850346,0.99976202708,0.0,0.0,0.0,0.0,0.0,0.0,0.0,0.0,0.0,-0.005,0.009,0.004,0.0,0.0,0.0,0.0,0.0,0.0,0.0,0.0,0.0,-0.15,0.22,0.0,0.0,0.0,0.0,0.0,0.0,0.0,0.0,0.0,0.0
1680087733752449445,240,1680087733750391960,imu_of_uwb_link,0.0,0.0,0.0218148850346,0.99976202708,0.0,0.0,0.0,0.0,0.0,0.0,0.0,0.0,0.0,0.006172,0.020172,0.040709,0.0,0.0,0.0,0.0,0.0,0.0,0.0,0.0,0.0,-2.351172,-0.370967,9.505713,0.0,0.0,0.0,0.0,0.0,0.0,0.0,0.0,0.0
1680087734002382257,241,1680087734001475095,imu_of_uwb_link,0.0,0.0,0.0218148850346,0.99976202708,0.0,0.0,0.0,0.0,0.0,0.0,0.0,0.0,0.0,-0.003404,-0.016537,0.027941,0.0,0.0,0.0,0.0,0.0,0.0,0.0,0.0,0.0,-2.21958,-0.366182,9.541601,0.0,0.0,0.0,0.0,0.0,0.0,0.0,0.0,0.0
1680087734252291892,242,1680087734251025915,imu_of_uwb_link,0.0,0.0,0.0218148850346,0.99976202708,0.0,0.0,0.0,0.0,0.0,0.0,0.0,0.0,0.0,-0.022556,0.003148,0.043369,0.0,0.0,0.0,0.0,0.0,0.0,0.0,0.0,0.0,-2.30332,-0.548018,9.49375,0.0,0.0,0.0,0.0,0.0,0.0,0.0,0.0,0.0
1680087734501441215,243,1680087734500827074,imu_of_uwb_link,0.0,0.0,0.0218148850346,0.99976202708,0.0,0.0,0.0,0.0,0.0,0.0,0.0,0.0,0.0,0.00564,0.011128,-0.0093,0.0,0.0,0.0,0.0,0.0,0.0,0.0,0.0,0.0,-2.346387,-0.337471,9.386084,0.0,0.0,0.0,0.0,0.0,0.0,0.0,0.0,0.0
1680087734751835017,244,1680087734750348091,imu_of_uwb_link,0.0,0.0,0.0218148850346,0.99976202708,0.0,0.0,0.0,0.0,0.0,0.0,0.0,0.0,0.0,0.066822,-0.021857,-0.041753,0.0,0.0,0.0,0.0,0.0,0.0,0.0,0.0,0.0,-2.217188,-0.287227,9.304736,0.0,0.0,0.0,0.0,0.0,0.0,0.0,0.0,0.0
1680087735001809392,245,1680087735001020908,imu_of_uwb_link,0.0,0.0,0.0218148850346,0.99976202708,0.0,0.0,0.0,0.0,0.0,0.0,0.0,0.0,0.0,-0.017236,0.014852,0.007192,0.0,0.0,0.0,0.0,0.0,0.0,0.0,0.0,0.0,-2.305713,-0.294404,9.457861,0.0,0.0,0.0,0.0,0.0,0.0,0.0,0.0,0.0
1680087735252409757,246,1680087735250560998,imu_of_uwb_link,0.0,0.0,0.0218148850346,0.99976202708,0.0,0.0,0.0,0.0,0.0,0.0,0.0,0.0,0.0,-0.00766,-0.018665,0.02262,0.0,0.0,0.0,0.0,0.0,0.0,0.0,0.0,0.0,-2.312891,-0.260908,9.438721,0.0,0.0,0.0,0.0,0.0,0.0,0.0,0.0,0.0
1680087735502274184,247,1680087735501204967,imu_of_uwb_link,0.0,0.0,0.0218148850346,0.99976202708,0.0,0.0,0.0,0.0,0.0,0.0,0.0,0.0,0.0,0.026389,-0.006428,0.004,0.0,0.0,0.0,0.0,0.0,0.0,0.0,0.0,0.0,-2.241113,-0.203486,9.410009,0.0,0.0,0.0,0.0,0.0,0.0,0.0,0.0,0.0
1680087735751749392,248,1680087735750503063,imu_of_uwb_link,0.0,0.0,0.0218148850346,0.99976202708,0.0,0.0,0.0,0.0,0.0,0.0,0.0,0.0,0.0,0.030113,-0.025581,-0.006108,0.0,0.0,0.0,0.0,0.0,0.0,0.0,0.0,0.0,-2.346387,-0.359004,9.453076,0.0,0.0,0.0,0.0,0.0,0.0,0.0,0.0,0.0
1680087736005312569,249,1680087736001372098,imu_of_uwb_link,0.0,0.0,0.0218148850346,0.99976202708,0.0,0.0,0.0,0.0,0.0,0.0,0.0,0.0,0.0,-0.088526,0.035601,0.032729,0.0,0.0,0.0,0.0,0.0,0.0,0.0,0.0,0.0,-2.286572,-0.222627,9.481787,0.0,0.0,0.0,0.0,0.0,0.0,0.0,0.0,0.0
1680087736253124860,250,1680087736251238107,imu_of_uwb_link,0.0,0.0,0.0218148850346,0.99976202708,0.0,0.0,0.0,0.0,0.0,0.0,0.0,0.0,0.0,-0.037453,0.029216,-0.008236,0.0,0.0,0.0,0.0,0.0,0.0,0.0,0.0,0.0,-2.341602,-0.265693,9.35498,0.0,0.0,0.0,0.0,0.0,0.0,0.0,0.0,0.0
1680087736501269548,251,1680087736500638008,imu_of_uwb_link,0.0,0.0,0.0218148850346,0.99976202708,0.0,0.0,0.0,0.0,0.0,0.0,0.0,0.0,0.0,0.033305,-0.008024,-0.018877,0.0,0.0,0.0,0.0,0.0,0.0,0.0,0.0,0.0,-2.370313,0.004668,9.314306,0.0,0.0,0.0,0.0,0.0,0.0,0.0,0.0,0.0
1680087736750939183,252,1680087736750463962,imu_of_uwb_link,0.0,0.0,0.0218148850346,0.99976202708,0.0,0.0,0.0,0.0,0.0,0.0,0.0,0.0,0.0,0.046073,-0.008556,-0.014088,0.0,0.0,0.0,0.0,0.0,0.0,0.0,0.0,0.0,-2.425342,-0.079072,9.182714,0.0,0.0,0.0,0.0,0.0,0.0,0.0,0.0,0.0
1680087737002259912,253,1680087737001318931,imu_of_uwb_link,0.0,0.0,0.0218148850346,0.99976202708,0.0,0.0,0.0,0.0,0.0,0.0,0.0,0.0,0.0,-0.085866,0.013788,0.004,0.0,0.0,0.0,0.0,0.0,0.0,0.0,0.0,0.0,-2.305713,-0.399678,9.484179,0.0,0.0,0.0,0.0,0.0,0.0,0.0,0.0,0.0
1680087737251896527,254,1680087737251092910,imu_of_uwb_link,0.0,0.0,0.0218148850346,0.99976202708,0.0,0.0,0.0,0.0,0.0,0.0,0.0,0.0,0.0,0.049265,0.007404,-0.034837,0.0,0.0,0.0,0.0,0.0,0.0,0.0,0.0,0.0,-2.492334,-0.421211,9.211426,0.0,0.0,0.0,0.0,0.0,0.0,0.0,0.0,0.0
1680087737501221631,255,1680087737500669002,imu_of_uwb_link,0.0,0.0,0.0218148850346,0.99976202708,0.0,0.0,0.0,0.0,0.0,0.0,0.0,0.0,0.0,0.018409,-0.008024,-0.008768,0.0,0.0,0.0,0.0,0.0,0.0,0.0,0.0,0.0,-2.343994,-0.303975,9.417188,0.0,0.0,0.0,0.0,0.0,0.0,0.0,0.0,0.0
1680087737752579964,256,1680087737751820087,imu_of_uwb_link,0.0,0.0,0.0218148850346,0.99976202708,0.0,0.0,0.0,0.0,0.0,0.0,0.0,0.0,0.0,-0.056073,0.066457,0.004532,0.0,0.0,0.0,0.0,0.0,0.0,0.0,0.0,0.0,-2.305713,-0.83752,9.644483,0.0,0.0,0.0,0.0,0.0,0.0,0.0,0.0,0.0
1680087738002318401,257,1680087738001183986,imu_of_uwb_link,0.0,0.0,0.0218148850346,0.99976202708,0.0,0.0,0.0,0.0,0.0,0.0,0.0,0.0,0.0,0.047137,-0.045265,-0.018345,0.0,0.0,0.0,0.0,0.0,0.0,0.0,0.0,0.0,-2.614355,-0.421211,9.216211,0.0,0.0,0.0,0.0,0.0,0.0,0.0,0.0,0.0
1680087738250906839,258,1680087738250432014,imu_of_uwb_link,0.0,0.0,0.0218148850346,0.99976202708,0.0,0.0,0.0,0.0,0.0,0.0,0.0,0.0,0.0,0.109915,-0.077186,-0.011428,0.0,0.0,0.0,0.0,0.0,0.0,0.0,0.0,0.0,-2.365527,-0.110176,9.398046,0.0,0.0,0.0,0.0,0.0,0.0,0.0,0.0,0.0
1680087738501227464,259,1680087738500471115,imu_of_uwb_link,0.0,0.0,0.0218148850346,0.99976202708,0.0,0.0,0.0,0.0,0.0,0.0,0.0,0.0,0.0,0.042881,-0.043669,-0.043349,0.0,0.0,0.0,0.0,0.0,0.0,0.0,0.0,0.0,-2.353564,-0.23459,9.472217,0.0,0.0,0.0,0.0,0.0,0.0,0.0,0.0,0.0
1680087738751552568,260,1680087738750919103,imu_of_uwb_link,0.0,0.0,0.0218148850346,0.99976202708,0.0,0.0,0.0,0.0,0.0,0.0,0.0,0.0,0.0,-0.007128,0.013256,-0.016748,0.0,0.0,0.0,0.0,0.0,0.0,0.0,0.0,0.0,-2.348779,-0.134102,9.321485,0.0,0.0,0.0,0.0,0.0,0.0,0.0,0.0,0.0
1680087739001796057,261,1680087739001034021,imu_of_uwb_link,0.0,0.0,0.0218148850346,0.99976202708,0.0,0.0,0.0,0.0,0.0,0.0,0.0,0.0,0.0,0.019473,0.01432,-0.000788,0.0,0.0,0.0,0.0,0.0,0.0,0.0,0.0,0.0,-2.360742,-0.229805,9.429151,0.0,0.0,0.0,0.0,0.0,0.0,0.0,0.0,0.0
1680087739251520901,262,1680087739250874042,imu_of_uwb_link,0.0,0.0,0.0218148850346,0.99976202708,0.0,0.0,0.0,0.0,0.0,0.0,0.0,0.0,0.0,-0.033729,0.017512,0.011448,0.0,0.0,0.0,0.0,0.0,0.0,0.0,0.0,0.0,-2.320068,-0.265693,9.572705,0.0,0.0,0.0,0.0,0.0,0.0,0.0,0.0,0.0
1680087739502117984,263,1680087739501368045,imu_of_uwb_link,0.0,0.0,0.0218148850346,0.99976202708,0.0,0.0,0.0,0.0,0.0,0.0,0.0,0.0,0.0,-0.01298,0.011128,0.032729,0.0,0.0,0.0,0.0,0.0,0.0,0.0,0.0,0.0,-2.353564,-0.363789,9.481787,0.0,0.0,0.0,0.0,0.0,0.0,0.0,0.0,0.0
1680087739754716109,264,1680087739751027107,imu_of_uwb_link,0.0,0.0,0.0218148850346,0.99976202708,0.0,0.0,0.0,0.0,0.0,0.0,0.0,0.0,0.0,0.022665,0.024428,-0.019941,0.0,0.0,0.0,0.0,0.0,0.0,0.0,0.0,0.0,-2.528223,-0.411641,9.386084,0.0,0.0,0.0,0.0,0.0,0.0,0.0,0.0,0.0
1680087740003404390,265,1680087740001373052,imu_of_uwb_link,0.0,0.0,0.0218148850346,0.99976202708,0.0,0.0,0.0,0.0,0.0,0.0,0.0,0.0,0.0,-0.041177,-0.030369,0.002936,0.0,0.0,0.0,0.0,0.0,0.0,0.0,0.0,0.0,-2.403808,-0.179561,9.441113,0.0,0.0,0.0,0.0,0.0,0.0,0.0,0.0,0.0
1680087740254162307,266,1680087740251679897,imu_of_uwb_link,0.0,0.0,0.0218148850346,0.99976202708,0.0,0.0,0.0,0.0,0.0,0.0,0.0,0.0,0.0,-0.005532,0.051029,0.017832,0.0,0.0,0.0,0.0,0.0,0.0,0.0,0.0,0.0,-2.470801,-0.296797,9.237744,0.0,0.0,0.0,0.0,0.0,0.0,0.0,0.0,0.0
1680087740501892515,267,1680087740500899076,imu_of_uwb_link,0.0,0.0,0.0218148850346,0.99976202708,0.0,0.0,0.0,0.0,0.0,0.0,0.0,0.0,0.0,-0.003404,-0.016537,-0.016748,0.0,0.0,0.0,0.0,0.0,0.0,0.0,0.0,0.0,-2.413379,-0.270479,9.331055,0.0,0.0,0.0,0.0,0.0,0.0,0.0,0.0,0.0
1680087740751628609,268,1680087740750839948,imu_of_uwb_link,0.0,0.0,0.0218148850346,0.99976202708,0.0,0.0,0.0,0.0,0.0,0.0,0.0,0.0,0.0,-0.036389,-0.007492,-0.008768,0.0,0.0,0.0,0.0,0.0,0.0,0.0,0.0,0.0,-2.523437,-0.174775,9.512891,0.0,0.0,0.0,0.0,0.0,0.0,0.0,0.0,0.0
1680087741004521265,269,1680087741001204967,imu_of_uwb_link,0.0,0.0,0.0218148850346,0.99976202708,0.0,0.0,0.0,0.0,0.0,0.0,0.0,0.0,0.0,0.031709,0.008468,-0.00132,0.0,0.0,0.0,0.0,0.0,0.0,0.0,0.0,0.0,-2.277002,-0.473848,9.34541,0.0,0.0,0.0,0.0,0.0,0.0,0.0,0.0,0.0
1680087741251265379,270,1680087741250755071,imu_of_uwb_link,0.0,0.0,0.0218148850346,0.99976202708,0.0,0.0,0.0,0.0,0.0,0.0,0.0,0.0,0.0,-0.021492,-0.037285,0.003468,0.0,0.0,0.0,0.0,0.0,0.0,0.0,0.0,0.0,-2.188476,-0.339863,9.486572,0.0,0.0,0.0,0.0,0.0,0.0,0.0,0.0,0.0
1680087741503246577,271,1680087741501476049,imu_of_uwb_link,0.0,0.0,0.0218148850346,0.99976202708,0.0,0.0,0.0,0.0,0.0,0.0,0.0,0.0,0.0,-0.011384,0.007936,-0.011428,0.0,0.0,0.0,0.0,0.0,0.0,0.0,0.0,0.0,-2.439697,-0.375752,9.366943,0.0,0.0,0.0,0.0,0.0,0.0,0.0,0.0,0.0
1680087741753227463,272,1680087741751069068,imu_of_uwb_link,0.0,0.0,0.0218148850346,0.99976202708,0.0,0.0,0.0,0.0,0.0,0.0,0.0,0.0,0.0,-0.055541,0.01964,0.007724,0.0,0.0,0.0,0.0,0.0,0.0,0.0,0.0,0.0,-2.279395,-0.404463,9.488965,0.0,0.0,0.0,0.0,0.0,0.0,0.0,0.0,0.0
1680087742002215275,273,1680087742000607967,imu_of_uwb_link,0.0,0.0,0.0218148850346,0.99976202708,0.0,0.0,0.0,0.0,0.0,0.0,0.0,0.0,0.0,-0.010852,-0.010152,0.037517,0.0,0.0,0.0,0.0,0.0,0.0,0.0,0.0,0.0,-2.13584,-0.770527,9.402832,0.0,0.0,0.0,0.0,0.0,0.0,0.0,0.0,0.0
1680087742252291264,274,1680087742250504970,imu_of_uwb_link,0.0,0.0,0.0218148850346,0.99976202708,0.0,0.0,0.0,0.0,0.0,0.0,0.0,0.0,0.0,0.070546,-0.011748,-0.013556,0.0,0.0,0.0,0.0,0.0,0.0,0.0,0.0,0.0,-2.296142,-0.24416,9.393262,0.0,0.0,0.0,0.0,0.0,0.0,0.0,0.0,0.0
1680087742500994441,275,1680087742500497102,imu_of_uwb_link,0.0,0.0,0.0218148850346,0.99976202708,0.0,0.0,0.0,0.0,0.0,0.0,0.0,0.0,0.0,0.048733,-0.019729,-0.027921,0.0,0.0,0.0,0.0,0.0,0.0,0.0,0.0,0.0,-2.236328,-0.25373,9.445898,0.0,0.0,0.0,0.0,0.0,0.0,0.0,0.0,0.0
1680087742752125587,276,1680087742751416921,imu_of_uwb_link,0.0,0.0,0.0218148850346,0.99976202708,0.0,0.0,0.0,0.0,0.0,0.0,0.0,0.0,0.0,-0.01564,-0.06761,0.016768,0.0,0.0,0.0,0.0,0.0,0.0,0.0,0.0,0.0,-2.159766,-0.251338,9.371729,0.0,0.0,0.0,0.0,0.0,0.0,0.0,0.0,0.0
1680087743004587566,277,1680087743003211975,imu_of_uwb_link,0.0,0.0,0.0218148850346,0.99976202708,0.0,0.0,0.0,0.0,0.0,0.0,0.0,0.0,0.0,-0.034261,0.028684,-0.031113,0.0,0.0,0.0,0.0,0.0,0.0,0.0,0.0,0.0,-2.351172,0.033379,9.323877,0.0,0.0,0.0,0.0,0.0,0.0,0.0,0.0,0.0
1680087743252814024,278,1680087743250854969,imu_of_uwb_link,0.0,0.0,0.0218148850346,0.99976202708,0.0,0.0,0.0,0.0,0.0,0.0,0.0,0.0,0.0,0.088634,-0.030901,0.024748,0.0,0.0,0.0,0.0,0.0,0.0,0.0,0.0,0.0,-2.212402,-0.280049,9.101367,0.0,0.0,0.0,0.0,0.0,0.0,0.0,0.0,0.0
1680087743503468816,279,1680087743501087903,imu_of_uwb_link,0.0,0.0,0.0218148850346,0.99976202708,0.0,0.0,0.0,0.0,0.0,0.0,0.0,0.0,0.0,0.018941,-0.017601,0.034857,0.0,0.0,0.0,0.0,0.0,0.0,0.0,0.0,0.0,-2.188476,-0.126924,9.259277,0.0,0.0,0.0,0.0,0.0,0.0,0.0,0.0,0.0
1680087743750921212,280,1680087743750436067,imu_of_uwb_link,0.0,0.0,0.0218148850346,0.99976202708,0.0,0.0,0.0,0.0,0.0,0.0,0.0,0.0,0.0,0.064694,-0.089422,0.054541,0.0,0.0,0.0,0.0,0.0,0.0,0.0,0.0,0.0,-2.35835,0.088408,9.331055,0.0,0.0,0.0,0.0,0.0,0.0,0.0,0.0,0.0
1680087744001321680,281,1680087744000618934,imu_of_uwb_link,0.0,0.0,0.0218148850346,0.99976202708,0.0,0.0,0.0,0.0,0.0,0.0,0.0,0.0,0.0,-0.082674,0.052625,0.043369,0.0,0.0,0.0,0.0,0.0,0.0,0.0,0.0,0.0,-1.958789,-0.442744,9.610987,0.0,0.0,0.0,0.0,0.0,0.0,0.0,0.0,0.0
1680087744253773607,282,1680087744251053094,imu_of_uwb_link,0.0,0.0,0.0218148850346,0.99976202708,0.0,0.0,0.0,0.0,0.0,0.0,0.0,0.0,0.0,-0.07895,0.053689,-0.08591,0.0,0.0,0.0,0.0,0.0,0.0,0.0,0.0,0.0,-1.877441,-0.311152,9.457861,0.0,0.0,0.0,0.0,0.0,0.0,0.0,0.0,0.0
1680087744501089493,283,1680087744500401973,imu_of_uwb_link,0.0,0.0,0.0218148850346,0.99976202708,0.0,0.0,0.0,0.0,0.0,0.0,0.0,0.0,0.0,-0.005532,0.01698,-0.032177,0.0,0.0,0.0,0.0,0.0,0.0,0.0,0.0,0.0,-1.482666,0.1554,9.644483,0.0,0.0,0.0,0.0,0.0,0.0,0.0,0.0,0.0
1680087744753729961,284,1680087744750772953,imu_of_uwb_link,0.0,0.0,0.0218148850346,0.99976202708,0.0,0.0,0.0,0.0,0.0,0.0,0.0,0.0,0.0,0.012556,0.028684,0.016768,0.0,0.0,0.0,0.0,0.0,0.0,0.0,0.0,0.0,-2.162158,-0.16999,9.400439,0.0,0.0,0.0,0.0,0.0,0.0,0.0,0.0,0.0
1680087745001912149,285,1680087745001117944,imu_of_uwb_link,0.0,0.0,0.0218148850346,0.99976202708,0.0,0.0,0.0,0.0,0.0,0.0,0.0,0.0,0.0,-0.072566,-0.001108,0.089654,0.0,0.0,0.0,0.0,0.0,0.0,0.0,0.0,0.0,-2.150195,-0.198701,9.374121,0.0,0.0,0.0,0.0,0.0,0.0,0.0,0.0,0.0
1680087745250784440,286,1680087745250355005,imu_of_uwb_link,0.0,0.0,0.0218148850346,0.99976202708,0.0,0.0,0.0,0.0,0.0,0.0,0.0,0.0,0.0,-0.024684,0.079226,-0.025793,0.0,0.0,0.0,0.0,0.0,0.0,0.0,0.0,0.0,-1.84873,-0.241768,9.613379,0.0,0.0,0.0,0.0,0.0,0.0,0.0,0.0,0.0
1680087745502786836,287,1680087745500726938,imu_of_uwb_link,0.0,0.0,0.0218148850346,0.99976202708,0.0,0.0,0.0,0.0,0.0,0.0,0.0,0.0,0.0,-0.065117,0.028684,0.180628,0.0,0.0,0.0,0.0,0.0,0.0,0.0,0.0,0.0,-2.111914,0.270244,9.220996,0.0,0.0,0.0,0.0,0.0,0.0,0.0,0.0,0.0
1680087745751588607,288,1680087745750580072,imu_of_uwb_link,0.0,0.0,0.0218148850346,0.99976202708,0.0,0.0,0.0,0.0,0.0,0.0,0.0,0.0,0.0,-0.005,0.009,0.004,0.0,0.0,0.0,0.0,0.0,0.0,0.0,0.0,0.0,-0.15,0.22,0.0,0.0,0.0,0.0,0.0,0.0,0.0,0.0,0.0,0.0
1680087746002556315,289,1680087746000533103,imu_of_uwb_link,0.0,0.0,0.0218148850346,0.99976202708,0.0,0.0,0.0,0.0,0.0,0.0,0.0,0.0,0.0,-0.051285,-0.061226,0.035389,0.0,0.0,0.0,0.0,0.0,0.0,0.0,0.0,0.0,-2.049707,-0.47624,9.699512,0.0,0.0,0.0,0.0,0.0,0.0,0.0,0.0,0.0
1680087746251792252,290,1680087746250349998,imu_of_uwb_link,0.0,0.0,0.0218148850346,0.99976202708,0.0,0.0,0.0,0.0,0.0,0.0,0.0,0.0,0.0,-0.005,0.009,0.004,0.0,0.0,0.0,0.0,0.0,0.0,0.0,0.0,0.0,-0.15,0.22,0.0,0.0,0.0,0.0,0.0,0.0,0.0,0.0,0.0,0.0
1680087746502714700,291,1680087746500441074,imu_of_uwb_link,0.0,0.0,0.0218148850346,0.99976202708,0.0,0.0,0.0,0.0,0.0,0.0,0.0,0.0,0.0,0.018409,-0.017069,-0.015152,0.0,0.0,0.0,0.0,0.0,0.0,0.0,0.0,0.0,-2.157373,0.023809,9.307129,0.0,0.0,0.0,0.0,0.0,0.0,0.0,0.0,0.0
1680087746753593502,292,1680087746752015113,imu_of_uwb_link,0.0,0.0,0.0218148850346,0.99976202708,0.0,0.0,0.0,0.0,0.0,0.0,0.0,0.0,0.0,-0.005,0.009,0.004,0.0,0.0,0.0,0.0,0.0,0.0,0.0,0.0,0.0,-0.15,0.22,0.0,0.0,0.0,0.0,0.0,0.0,0.0,0.0,0.0,0.0
1680087747005676992,293,1680087747001432895,imu_of_uwb_link,0.0,0.0,0.0218148850346,0.99976202708,0.0,0.0,0.0,0.0,0.0,0.0,0.0,0.0,0.0,-0.005,0.009,0.004,0.0,0.0,0.0,0.0,0.0,0.0,0.0,0.0,0.0,-0.15,0.22,0.0,0.0,0.0,0.0,0.0,0.0,0.0,0.0,0.0,0.0
1680087747253087721,294,1680087747251108884,imu_of_uwb_link,0.0,0.0,0.0218148850346,0.99976202708,0.0,0.0,0.0,0.0,0.0,0.0,0.0,0.0,0.0,0.030113,-0.039945,-0.042285,0.0,0.0,0.0,0.0,0.0,0.0,0.0,0.0,0.0,-2.298535,0.028594,9.436328,0.0,0.0,0.0,0.0,0.0,0.0,0.0,0.0,0.0
1680087747505408085,295,1680087747500921964,imu_of_uwb_link,0.0,0.0,0.0218148850346,0.99976202708,0.0,0.0,0.0,0.0,0.0,0.0,0.0,0.0,0.0,-0.005,0.009,0.004,0.0,0.0,0.0,0.0,0.0,0.0,0.0,0.0,0.0,-0.15,0.22,0.0,0.0,0.0,0.0,0.0,0.0,0.0,0.0,0.0,0.0
1680087747751402356,296,1680087747750395059,imu_of_uwb_link,0.0,0.0,0.0218148850346,0.99976202708,0.0,0.0,0.0,0.0,0.0,0.0,0.0,0.0,0.0,-0.08161,0.051029,-0.009832,0.0,0.0,0.0,0.0,0.0,0.0,0.0,0.0,0.0,-2.092773,0.05252,9.627734,0.0,0.0,0.0,0.0,0.0,0.0,0.0,0.0,0.0
1680087748003716366,297,1680087748000874996,imu_of_uwb_link,0.0,0.0,0.0218148850346,0.99976202708,0.0,0.0,0.0,0.0,0.0,0.0,0.0,0.0,0.0,-0.02362,-0.019197,0.033261,0.0,0.0,0.0,0.0,0.0,0.0,0.0,0.0,0.0,-2.171729,0.066875,9.331055,0.0,0.0,0.0,0.0,0.0,0.0,0.0,0.0,0.0
1680087748253035637,298,1680087748250957012,imu_of_uwb_link,0.0,0.0,0.0218148850346,0.99976202708,0.0,0.0,0.0,0.0,0.0,0.0,0.0,0.0,0.0,-0.095974,0.061669,0.017832,0.0,0.0,0.0,0.0,0.0,0.0,0.0,0.0,0.0,-2.504297,0.51668,9.529638,0.0,0.0,0.0,0.0,0.0,0.0,0.0,0.0,0.0
1680087748503924543,299,1680087748501245021,imu_of_uwb_link,0.0,0.0,0.0218148850346,0.99976202708,0.0,0.0,0.0,0.0,0.0,0.0,0.0,0.0,0.0,0.295055,0.057945,-0.050265,0.0,0.0,0.0,0.0,0.0,0.0,0.0,0.0,0.0,-2.415771,0.466436,9.309522,0.0,0.0,0.0,0.0,0.0,0.0,0.0,0.0,0.0
1680087748751581574,300,1680087748750725030,imu_of_uwb_link,0.0,0.0,0.0218148850346,0.99976202708,0.0,0.0,0.0,0.0,0.0,0.0,0.0,0.0,0.0,-0.005,0.009,0.004,0.0,0.0,0.0,0.0,0.0,0.0,0.0,0.0,0.0,-0.15,0.22,0.0,0.0,0.0,0.0,0.0,0.0,0.0,0.0,0.0,0.0
1680087749001072824,301,1680087749000391960,imu_of_uwb_link,0.0,0.0,0.0218148850346,0.99976202708,0.0,0.0,0.0,0.0,0.0,0.0,0.0,0.0,0.0,0.109383,0.108486,0.043901,0.0,0.0,0.0,0.0,0.0,0.0,0.0,0.0,0.0,-2.475586,0.162578,9.02002,0.0,0.0,0.0,0.0,0.0,0.0,0.0,0.0,0.0
1680087749251431158,302,1680087749250896930,imu_of_uwb_link,0.0,0.0,0.0218148850346,0.99976202708,0.0,0.0,0.0,0.0,0.0,0.0,0.0,0.0,0.0,0.016813,0.006872,0.002936,0.0,0.0,0.0,0.0,0.0,0.0,0.0,0.0,0.0,-2.166943,0.346807,9.685156,0.0,0.0,0.0,0.0,0.0,0.0,0.0,0.0,0.0
1680087749504685324,303,1680087749501034975,imu_of_uwb_link,0.0,0.0,0.0218148850346,0.99976202708,0.0,0.0,0.0,0.0,0.0,0.0,0.0,0.0,0.0,-0.059265,0.065393,0.039645,0.0,0.0,0.0,0.0,0.0,0.0,0.0,0.0,0.0,-2.499512,0.74876,9.386084,0.0,0.0,0.0,0.0,0.0,0.0,0.0,0.0,0.0
1680087749754436418,304,1680087749750971078,imu_of_uwb_link,0.0,0.0,0.0218148850346,0.99976202708,0.0,0.0,0.0,0.0,0.0,0.0,0.0,0.0,0.0,-0.065117,-0.020793,0.032197,0.0,0.0,0.0,0.0,0.0,0.0,0.0,0.0,0.0,-2.420557,0.330059,9.529638,0.0,0.0,0.0,0.0,0.0,0.0,0.0,0.0,0.0
1680087750002591053,305,1680087750001127004,imu_of_uwb_link,0.0,0.0,0.0218148850346,0.99976202708,0.0,0.0,0.0,0.0,0.0,0.0,0.0,0.0,0.0,0.025325,0.038793,-0.006108,0.0,0.0,0.0,0.0,0.0,0.0,0.0,0.0,0.0,-2.681348,0.353984,9.376513,0.0,0.0,0.0,0.0,0.0,0.0,0.0,0.0,0.0
1680087750251767824,306,1680087750250859022,imu_of_uwb_link,0.0,0.0,0.0218148850346,0.99976202708,0.0,0.0,0.0,0.0,0.0,0.0,0.0,0.0,0.0,0.01628,0.041453,-0.074738,0.0,0.0,0.0,0.0,0.0,0.0,0.0,0.0,0.0,-2.645459,0.437725,9.323877,0.0,0.0,0.0,0.0,0.0,0.0,0.0,0.0,0.0
1680087750501196782,307,1680087750500509023,imu_of_uwb_link,0.0,0.0,0.0218148850346,0.99976202708,0.0,0.0,0.0,0.0,0.0,0.0,0.0,0.0,0.0,0.033305,0.040921,0.030601,0.0,0.0,0.0,0.0,0.0,0.0,0.0,0.0,0.0,-2.504297,0.605205,9.429151,0.0,0.0,0.0,0.0,0.0,0.0,0.0,0.0,0.0
1680087750752962719,308,1680087750750678062,imu_of_uwb_link,0.0,0.0,0.0218148850346,0.99976202708,0.0,0.0,0.0,0.0,0.0,0.0,0.0,0.0,0.0,0.057245,0.071245,-0.049733,0.0,0.0,0.0,0.0,0.0,0.0,0.0,0.0,0.0,-2.489942,0.456865,9.220996,0.0,0.0,0.0,0.0,0.0,0.0,0.0,0.0,0.0
1680087751005872303,309,1680087751001693964,imu_of_uwb_link,0.0,0.0,0.0218148850346,0.99976202708,0.0,0.0,0.0,0.0,0.0,0.0,0.0,0.0,0.0,-0.061393,0.095718,0.042305,0.0,0.0,0.0,0.0,0.0,0.0,0.0,0.0,0.0,-2.300928,0.68416,9.532031,0.0,0.0,0.0,0.0,0.0,0.0,0.0,0.0,0.0
1680087751253214490,310,1680087751250772953,imu_of_uwb_link,0.0,0.0,0.0218148850346,0.99976202708,0.0,0.0,0.0,0.0,0.0,0.0,0.0,0.0,0.0,-0.005,0.009,0.004,0.0,0.0,0.0,0.0,0.0,0.0,0.0,0.0,0.0,-0.15,0.22,0.0,0.0,0.0,0.0,0.0,0.0,0.0,0.0,0.0,0.0
1680087751504903605,311,1680087751502461910,imu_of_uwb_link,0.0,0.0,0.0218148850346,0.99976202708,0.0,0.0,0.0,0.0,0.0,0.0,0.0,0.0,0.0,-0.005,0.009,0.004,0.0,0.0,0.0,0.0,0.0,0.0,0.0,0.0,0.0,-0.15,0.22,0.0,0.0,0.0,0.0,0.0,0.0,0.0,0.0,0.0,0.0
1680087751751928552,312,1680087751750895977,imu_of_uwb_link,0.0,0.0,0.0218148850346,0.99976202708,0.0,0.0,0.0,0.0,0.0,0.0,0.0,0.0,0.0,0.058309,-0.022389,-0.023665,0.0,0.0,0.0,0.0,0.0,0.0,0.0,0.0,0.0,-2.59043,0.444902,9.283203,0.0,0.0,0.0,0.0,0.0,0.0,0.0,0.0,0.0
1680087752004219594,313,1680087752000994920,imu_of_uwb_link,0.0,0.0,0.0218148850346,0.99976202708,0.0,0.0,0.0,0.0,0.0,0.0,0.0,0.0,0.0,-0.045433,0.059009,-0.078994,0.0,0.0,0.0,0.0,0.0,0.0,0.0,0.0,0.0,-2.707666,0.471221,9.402832,0.0,0.0,0.0,0.0,0.0,0.0,0.0,0.0,0.0
1680087752253366729,314,1680087752251943111,imu_of_uwb_link,0.0,0.0,0.0218148850346,0.99976202708,0.0,0.0,0.0,0.0,0.0,0.0,0.0,0.0,0.0,0.037029,0.029216,-0.024197,0.0,0.0,0.0,0.0,0.0,0.0,0.0,0.0,0.0,-2.829688,0.538213,9.060694,0.0,0.0,0.0,0.0,0.0,0.0,0.0,0.0,0.0
1680087752501415271,315,1680087752500492095,imu_of_uwb_link,0.0,0.0,0.0218148850346,0.99976202708,0.0,0.0,0.0,0.0,0.0,0.0,0.0,0.0,0.0,-0.005,0.009,0.004,0.0,0.0,0.0,0.0,0.0,0.0,0.0,0.0,0.0,-0.15,0.22,0.0,0.0,0.0,0.0,0.0,0.0,0.0,0.0,0.0,0.0
1680087752752583865,316,1680087752750823974,imu_of_uwb_link,0.0,0.0,0.0218148850346,0.99976202708,0.0,0.0,0.0,0.0,0.0,0.0,0.0,0.0,0.0,0.057777,-0.025049,-0.030581,0.0,0.0,0.0,0.0,0.0,0.0,0.0,0.0,0.0,-2.846435,0.471221,9.132471,0.0,0.0,0.0,0.0,0.0,0.0,0.0,0.0,0.0
1680087753005068135,317,1680087753001638889,imu_of_uwb_link,0.0,0.0,0.0218148850346,0.99976202708,0.0,0.0,0.0,0.0,0.0,0.0,0.0,0.0,0.0,-0.023088,0.048369,-0.017813,0.0,0.0,0.0,0.0,0.0,0.0,0.0,0.0,0.0,-2.894287,0.583672,9.311914,0.0,0.0,0.0,0.0,0.0,0.0,0.0,0.0,0.0
1680087753251051677,318,1680087753250257015,imu_of_uwb_link,0.0,0.0,0.0218148850346,0.99976202708,0.0,0.0,0.0,0.0,0.0,0.0,0.0,0.0,0.0,-0.055009,0.013256,-0.042285,0.0,0.0,0.0,0.0,0.0,0.0,0.0,0.0,0.0,-2.824902,0.51668,9.378906,0.0,0.0,0.0,0.0,0.0,0.0,0.0,0.0,0.0
1680087753503231104,319,1680087753500514030,imu_of_uwb_link,0.0,0.0,0.0218148850346,0.99976202708,0.0,0.0,0.0,0.0,0.0,0.0,0.0,0.0,0.0,-0.008724,0.01698,0.027409,0.0,0.0,0.0,0.0,0.0,0.0,0.0,0.0,0.0,-2.671777,0.459258,9.486572,0.0,0.0,0.0,0.0,0.0,0.0,0.0,0.0,0.0
1680087753751925687,320,1680087753750870943,imu_of_uwb_link,0.0,0.0,0.0218148850346,0.99976202708,0.0,0.0,0.0,0.0,0.0,0.0,0.0,0.0,0.0,-0.00766,0.002616,0.011448,0.0,0.0,0.0,0.0,0.0,0.0,0.0,0.0,0.0,-2.726807,0.688945,9.331055,0.0,0.0,0.0,0.0,0.0,0.0,0.0,0.0,0.0
1680087754002638187,321,1680087754000883102,imu_of_uwb_link,0.0,0.0,0.0218148850346,0.99976202708,0.0,0.0,0.0,0.0,0.0,0.0,0.0,0.0,0.0,0.116831,-0.016537,-0.102402,0.0,0.0,0.0,0.0,0.0,0.0,0.0,0.0,0.0,-2.745947,0.454473,9.285596,0.0,0.0,0.0,0.0,0.0,0.0,0.0,0.0,0.0
1680087754252629437,322,1680087754250602960,imu_of_uwb_link,0.0,0.0,0.0218148850346,0.99976202708,0.0,0.0,0.0,0.0,0.0,0.0,0.0,0.0,0.0,0.075866,0.045177,-0.002916,0.0,0.0,0.0,0.0,0.0,0.0,0.0,0.0,0.0,-2.633496,0.545391,9.503321,0.0,0.0,0.0,0.0,0.0,0.0,0.0,0.0,0.0
1680087754502863968,323,1680087754500689029,imu_of_uwb_link,0.0,0.0,0.0218148850346,0.99976202708,0.0,0.0,0.0,0.0,0.0,0.0,0.0,0.0,0.0,-0.006596,0.041453,-0.008768,0.0,0.0,0.0,0.0,0.0,0.0,0.0,0.0,0.0,-2.958887,0.576494,9.149219,0.0,0.0,0.0,0.0,0.0,0.0,0.0,0.0,0.0
1680087754752880999,324,1680087754750766038,imu_of_uwb_link,0.0,0.0,0.0218148850346,0.99976202708,0.0,0.0,0.0,0.0,0.0,0.0,0.0,0.0,0.0,-0.005,0.009,0.004,0.0,0.0,0.0,0.0,0.0,0.0,0.0,0.0,0.0,-0.15,0.22,0.0,0.0,0.0,0.0,0.0,0.0,0.0,0.0,0.0,0.0
1680087755001803916,325,1680087755000519990,imu_of_uwb_link,0.0,0.0,0.0218148850346,0.99976202708,0.0,0.0,0.0,0.0,0.0,0.0,0.0,0.0,0.0,0.020005,0.021768,0.002404,0.0,0.0,0.0,0.0,0.0,0.0,0.0,0.0,0.0,-2.879932,0.251104,9.371729,0.0,0.0,0.0,0.0,0.0,0.0,0.0,0.0,0.0
1680087755253428291,326,1680087755251020908,imu_of_uwb_link,0.0,0.0,0.0218148850346,0.99976202708,0.0,0.0,0.0,0.0,0.0,0.0,0.0,0.0,0.0,-0.005,0.009,0.004,0.0,0.0,0.0,0.0,0.0,0.0,0.0,0.0,0.0,-0.15,0.22,0.0,0.0,0.0,0.0,0.0,0.0,0.0,0.0,0.0,0.0
1680087755503142405,327,1680087755500708103,imu_of_uwb_link,0.0,0.0,0.0218148850346,0.99976202708,0.0,0.0,0.0,0.0,0.0,0.0,0.0,0.0,0.0,-0.005,0.009,0.004,0.0,0.0,0.0,0.0,0.0,0.0,0.0,0.0,0.0,-0.15,0.22,0.0,0.0,0.0,0.0,0.0,0.0,0.0,0.0,0.0,0.0
1680087755751868082,328,1680087755750442981,imu_of_uwb_link,0.0,0.0,0.0218148850346,0.99976202708,0.0,0.0,0.0,0.0,0.0,0.0,0.0,0.0,0.0,0.056713,-0.041541,0.042837,0.0,0.0,0.0,0.0,0.0,0.0,0.0,0.0,0.0,-2.779443,0.834893,9.486572,0.0,0.0,0.0,0.0,0.0,0.0,0.0,0.0,0.0
1680087756002697717,329,1680087756001260042,imu_of_uwb_link,0.0,0.0,0.0218148850346,0.99976202708,0.0,0.0,0.0,0.0,0.0,0.0,0.0,0.0,0.0,-0.005,0.009,0.004,0.0,0.0,0.0,0.0,0.0,0.0,0.0,0.0,0.0,-0.15,0.22,0.0,0.0,0.0,0.0,0.0,0.0,0.0,0.0,0.0,0.0
1680087756252308603,330,1680087756250906944,imu_of_uwb_link,0.0,0.0,0.0218148850346,0.99976202708,0.0,0.0,0.0,0.0,0.0,0.0,0.0,0.0,0.0,0.029049,0.062733,0.01464,0.0,0.0,0.0,0.0,0.0,0.0,0.0,0.0,0.0,-2.827295,0.91624,9.331055,0.0,0.0,0.0,0.0,0.0,0.0,0.0,0.0,0.0
1680087756501936207,331,1680087756501060009,imu_of_uwb_link,0.0,0.0,0.0218148850346,0.99976202708,0.0,0.0,0.0,0.0,0.0,0.0,0.0,0.0,0.0,-0.090654,-0.017601,0.07529,0.0,0.0,0.0,0.0,0.0,0.0,0.0,0.0,0.0,-3.028272,0.614775,9.067871,0.0,0.0,0.0,0.0,0.0,0.0,0.0,0.0,0.0
1680087756752738811,332,1680087756750772953,imu_of_uwb_link,0.0,0.0,0.0218148850346,0.99976202708,0.0,0.0,0.0,0.0,0.0,0.0,0.0,0.0,0.0,0.018941,0.010596,-0.042285,0.0,0.0,0.0,0.0,0.0,0.0,0.0,0.0,0.0,-2.793799,0.753545,9.388476,0.0,0.0,0.0,0.0,0.0,0.0,0.0,0.0,0.0
