%time,field.header.seq,field.header.stamp,field.header.frame_id,field.orientation.x,field.orientation.y,field.orientation.z,field.orientation.w,field.orientation_covariance0,field.orientation_covariance1,field.orientation_covariance2,field.orientation_covariance3,field.orientation_covariance4,field.orientation_covariance5,field.orientation_covariance6,field.orientation_covariance7,field.orientation_covariance8,field.angular_velocity.x,field.angular_velocity.y,field.angular_velocity.z,field.angular_velocity_covariance0,field.angular_velocity_covariance1,field.angular_velocity_covariance2,field.angular_velocity_covariance3,field.angular_velocity_covariance4,field.angular_velocity_covariance5,field.angular_velocity_covariance6,field.angular_velocity_covariance7,field.angular_velocity_covariance8,field.linear_acceleration.x,field.linear_acceleration.y,field.linear_acceleration.z,field.linear_acceleration_covariance0,field.linear_acceleration_covariance1,field.linear_acceleration_covariance2,field.linear_acceleration_covariance3,field.linear_acceleration_covariance4,field.linear_acceleration_covariance5,field.linear_acceleration_covariance6,field.linear_acceleration_covariance7,field.linear_acceleration_covariance8
1.68009E+18,1,1.68009E+18,imu_of_uwb_link,0,0,0.021814885,0.999762027,0,0,0,0,0,0,0,0,0,0.188652,-0.049521,1.294662,0,0,0,0,0,0,0,0,0,1.118066,0.296563,9.840673,0,0,0,0,0,0,0,0,0
1.68009E+18,2,1.68009E+18,imu_of_uwb_link,0,0,0.021814885,0.999762027,0,0,0,0,0,0,0,0,0,-0.080014,0.43195,0.537608,0,0,0,0,0,0,0,0,0,-1.006543,1.569414,9.228174,0,0,0,0,0,0,0,0,0
1.68009E+18,3,1.68009E+18,imu_of_uwb_link,0,0,0.021814885,0.999762027,0,0,0,0,0,0,0,0,0,-0.164072,0.040921,0.595066,0,0,0,0,0,0,0,0,0,0.266309,0.849248,9.835889,0,0,0,0,0,0,0,0,0
1.68009E+18,4,1.68009E+18,imu_of_uwb_link,0,0,0.021814885,0.999762027,0,0,0,0,0,0,0,0,0,0.17748,0.224997,-0.332764,0,0,0,0,0,0,0,0,0,-1.130957,1.124395,9.967481,0,0,0,0,0,0,0,0,0
1.68009E+18,5,1.68009E+18,imu_of_uwb_link,0,0,0.021814885,0.999762027,0,0,0,0,0,0,0,0,0,0.200357,0.212761,0.040177,0,0,0,0,0,0,0,0,0,-1.788916,0.928203,10.230664,0,0,0,0,0,0,0,0,0
1.68009E+18,6,1.68009E+18,imu_of_uwb_link,0,0,0.021814885,0.999762027,0,0,0,0,0,0,0,0,0,-0.001808,0.736261,0.219997,0,0,0,0,0,0,0,0,0,-0.563916,0.760723,8.814258,0,0,0,0,0,0,0,0,0
1.68009E+18,7,1.68009E+18,imu_of_uwb_link,0,0,0.021814885,0.999762027,0,0,0,0,0,0,0,0,0,0.114171,-0.124535,-0.35298,0,0,0,0,0,0,0,0,0,-2.073633,0.779863,10.029688,0,0,0,0,0,0,0,0,0
1.68009E+18,8,1.68009E+18,imu_of_uwb_link,0,0,0.021814885,0.999762027,0,0,0,0,0,0,0,0,0,-0.120447,-0.158584,0.052413,0,0,0,0,0,0,0,0,0,-2.248291,0.810967,9.264063,0,0,0,0,0,0,0,0,0
1.68009E+18,9,1.68009E+18,imu_of_uwb_link,0,0,0.021814885,0.999762027,0,0,0,0,0,0,0,0,0,-0.024152,-0.179332,0.048689,0,0,0,0,0,0,0,0,0,-1.391748,1.071758,9.484179,0,0,0,0,0,0,0,0,0
1.68009E+18,10,1.68009E+18,imu_of_uwb_link,0,0,0.021814885,0.999762027,0,0,0,0,0,0,0,0,0,-0.058733,0.174456,0.047625,0,0,0,0,0,0,0,0,0,-1.145313,1.547881,9.393262,0,0,0,0,0,0,0,0,0
1.68009E+18,11,1.68009E+18,imu_of_uwb_link,0,0,0.021814885,0.999762027,0,0,0,0,0,0,0,0,0,-0.033197,-0.274031,0.127959,0,0,0,0,0,0,0,0,0,-1.430029,1.631621,10.048828,0,0,0,0,0,0,0,0,0
1.68009E+18,12,1.68009E+18,imu_of_uwb_link,0,0,0.021814885,0.999762027,0,0,0,0,0,0,0,0,0,0.114171,0.070181,0.155091,0,0,0,0,0,0,0,0,0,-0.542383,0.928203,9.907666,0,0,0,0,0,0,0,0,0
1.68009E+18,13,1.68009E+18,imu_of_uwb_link,0,0,0.021814885,0.999762027,0,0,0,0,0,0,0,0,0,-0.060861,-0.027177,-0.032177,0,0,0,0,0,0,0,0,0,-0.685937,0.088408,9.64209,0,0,0,0,0,0,0,0,0
1.68009E+18,14,1.68009E+18,imu_of_uwb_link,0,0,0.021814885,0.999762027,0,0,0,0,0,0,0,0,0,-0.175776,0.068053,-0.016748,0,0,0,0,0,0,0,0,0,-0.61416,0.215215,10.111035,0,0,0,0,0,0,0,0,0
1.68009E+18,15,1.68009E+18,imu_of_uwb_link,0,0,0.021814885,0.999762027,0,0,0,0,0,0,0,0,0,0.209401,0.064329,0.113063,0,0,0,0,0,0,0,0,0,-0.736182,0.717656,9.778467,0,0,0,0,0,0,0,0,0
1.68009E+18,16,1.68009E+18,imu_of_uwb_link,0,0,0.021814885,0.999762027,0,0,0,0,0,0,0,0,0,-0.142259,-0.169224,0.210953,0,0,0,0,0,0,0,0,0,-0.685937,0.459258,9.764112,0,0,0,0,0,0,0,0,0
1.68009E+18,17,1.68009E+18,imu_of_uwb_link,0,0,0.021814885,0.999762027,0,0,0,0,0,0,0,0,0,-0.135875,0.116466,-0.067822,0,0,0,0,0,0,0,0,0,-1.791309,1.227275,10.493848,0,0,0,0,0,0,0,0,0
1.68009E+18,18,1.68009E+18,imu_of_uwb_link,0,0,0.021814885,0.999762027,0,0,0,0,0,0,0,0,0,-0.095442,0.153175,-0.249238,0,0,0,0,0,0,0,0,0,-0.83667,0.53582,9.66123,0,0,0,0,0,0,0,0,0
1.68009E+18,19,1.68009E+18,imu_of_uwb_link,0,0,0.021814885,0.999762027,0,0,0,0,0,0,0,0,0,-0.011916,0.046773,-0.032709,0,0,0,0,0,0,0,0,0,-1.549658,0.569316,9.33584,0,0,0,0,0,0,0,0,0
1.68009E+18,20,1.68009E+18,imu_of_uwb_link,0,0,0.021814885,0.999762027,0,0,0,0,0,0,0,0,0,0.018941,0.00368,-0.073674,0,0,0,0,0,0,0,0,0,-1.375,0.696123,9.797607,0,0,0,0,0,0,0,0,0
1.68009E+18,21,1.68009E+18,imu_of_uwb_link,0,0,0.021814885,0.999762027,0,0,0,0,0,0,0,0,0,0.128003,0.313843,-0.088038,0,0,0,0,0,0,0,0,0,-1.315186,1.052617,10.077539,0,0,0,0,0,0,0,0,0
1.68009E+18,22,1.68009E+18,imu_of_uwb_link,0,0,0.021814885,0.999762027,0,0,0,0,0,0,0,0,0,0.004044,0.081354,-0.002384,0,0,0,0,0,0,0,0,0,-2.415771,0.562139,9.323877,0,0,0,0,0,0,0,0,0
1.68009E+18,23,1.68009E+18,imu_of_uwb_link,0,0,0.021814885,0.999762027,0,0,0,0,0,0,0,0,0,-0.115659,0.09891,-0.048137,0,0,0,0,0,0,0,0,0,-2.387061,0.636309,9.264063,0,0,0,0,0,0,0,0,0
1.68009E+18,24,1.68009E+18,imu_of_uwb_link,0,0,0.021814885,0.999762027,0,0,0,0,0,0,0,0,0,-0.027877,0.029748,-0.035901,0,0,0,0,0,0,0,0,0,-2.327246,0.351592,9.393262,0,0,0,0,0,0,0,0,0
1.68009E+18,25,1.68009E+18,imu_of_uwb_link,0,0,0.021814885,0.999762027,0,0,0,0,0,0,0,0,0,-0.16088,0.151579,0.010916,0,0,0,0,0,0,0,0,0,-2.286572,0.174541,9.240137,0,0,0,0,0,0,0,0,0
1.68009E+18,26,1.68009E+18,imu_of_uwb_link,0,0,0.021814885,0.999762027,0,0,0,0,0,0,0,0,0,0.014684,0.008468,0.110402,0,0,0,0,0,0,0,0,0,-2.731592,-0.033613,9.594238,0,0,0,0,0,0,0,0,0
1.68009E+18,27,1.68009E+18,imu_of_uwb_link,0,0,0.021814885,0.999762027,0,0,0,0,0,0,0,0,0,-0.055009,0.074438,-0.084846,0,0,0,0,0,0,0,0,0,-2.131055,0.208037,9.575098,0,0,0,0,0,0,0,0,0
1.68009E+18,28,1.68009E+18,imu_of_uwb_link,0,0,0.021814885,0.999762027,0,0,0,0,0,0,0,0,0,-0.114063,-0.077718,0.110402,0,0,0,0,0,0,0,0,0,-3.021094,-0.62458,9.008057,0,0,0,0,0,0,0,0,0
1.68009E+18,29,1.68009E+18,imu_of_uwb_link,0,0,0.021814885,0.999762027,0,0,0,0,0,0,0,0,0,0.045541,0.018044,0.359916,0,0,0,0,0,0,0,0,0,-2.166943,-0.122139,10.127783,0,0,0,0,0,0,0,0,0
1.68009E+18,30,1.68009E+18,imu_of_uwb_link,0,0,0.021814885,0.999762027,0,0,0,0,0,0,0,0,0,-0.09491,-0.061226,0.052413,0,0,0,0,0,0,0,0,0,-2.518652,-0.083857,9.232959,0,0,0,0,0,0,0,0,0
1.68009E+18,31,1.68009E+18,imu_of_uwb_link,0,0,0.021814885,0.999762027,0,0,0,0,0,0,0,0,0,0.001916,-0.166032,0.051349,0,0,0,0,0,0,0,0,0,-3.219678,-0.208271,9.220996,0,0,0,0,0,0,0,0,0
1.68009E+18,32,1.68009E+18,imu_of_uwb_link,0,0,0.021814885,0.999762027,0,0,0,0,0,0,0,0,0,-0.024152,-0.303291,0.051881,0,0,0,0,0,0,0,0,0,-2.207617,-0.734639,8.833399,0,0,0,0,0,0,0,0,0
1.68009E+18,33,1.68009E+18,imu_of_uwb_link,0,0,0.021814885,0.999762027,0,0,0,0,0,0,0,0,0,-0.148111,0.076566,-0.123683,0,0,0,0,0,0,0,0,0,-3.102441,-0.545625,8.924316,0,0,0,0,0,0,0,0,0
1.68009E+18,34,1.68009E+18,imu_of_uwb_link,0,0,0.021814885,0.999762027,0,0,0,0,0,0,0,0,0,0.00564,-0.07027,-0.144431,0,0,0,0,0,0,0,0,0,-2.827295,-0.581514,8.943457,0,0,0,0,0,0,0,0,0
1.68009E+18,35,1.68009E+18,imu_of_uwb_link,0,0,0.021814885,0.999762027,0,0,0,0,0,0,0,0,0,-0.081078,-0.085166,-0.079526,0,0,0,0,0,0,0,0,0,-2.5354,-0.61501,9.644483,0,0,0,0,0,0,0,0,0
1.68009E+18,36,1.68009E+18,imu_of_uwb_link,0,0,0.021814885,0.999762027,0,0,0,0,0,0,0,0,0,0.009364,-0.172416,0.042305,0,0,0,0,0,0,0,0,0,-2.396631,0.05252,9.553564,0,0,0,0,0,0,0,0,0
1.68009E+18,37,1.68009E+18,imu_of_uwb_link,0,0,0.021814885,0.999762027,0,0,0,0,0,0,0,0,0,-0.038517,-0.126663,-0.045477,0,0,0,0,0,0,0,0,0,-2.207617,0.021416,9.33584,0,0,0,0,0,0,0,0,0
1.68009E+18,38,1.68009E+18,imu_of_uwb_link,0,0,0.021814885,0.999762027,0,0,0,0,0,0,0,0,0,0.18014,0.021236,0.194992,0,0,0,0,0,0,0,0,0,-1.214697,-0.129316,9.673193,0,0,0,0,0,0,0,0,0
1.68009E+18,39,1.68009E+18,imu_of_uwb_link,0,0,0.021814885,0.999762027,0,0,0,0,0,0,0,0,0,0.008832,-0.000576,0.02528,0,0,0,0,0,0,0,0,0,-1.815234,-0.143672,9.572705,0,0,0,0,0,0,0,0,0
1.68009E+18,40,1.68009E+18,imu_of_uwb_link,0,0,0.021814885,0.999762027,0,0,0,0,0,0,0,0,0,0.059373,-0.256474,-0.008768,0,0,0,0,0,0,0,0,0,-1.910937,0.198467,9.532031,0,0,0,0,0,0,0,0,0
1.68009E+18,41,1.68009E+18,imu_of_uwb_link,0,0,0.021814885,0.999762027,0,0,0,0,0,0,0,0,0,-0.026813,-0.247962,0.097102,0,0,0,0,0,0,0,0,0,-0.886914,0.059697,8.572607,0,0,0,0,0,0,0,0,0
1.68009E+18,42,1.68009E+18,imu_of_uwb_link,0,0,0.021814885,0.999762027,0,0,0,0,0,0,0,0,0,-0.139067,0.113806,0.155623,0,0,0,0,0,0,0,0,0,-1.784131,0.222393,8.754443,0,0,0,0,0,0,0,0,0
1.68009E+18,43,1.68009E+18,imu_of_uwb_link,0,0,0.021814885,0.999762027,0,0,0,0,0,0,0,0,0,0.114171,-0.049521,-0.296587,0,0,0,0,0,0,0,0,0,-1.714746,0.815752,9.917236,0,0,0,0,0,0,0,0,0
1.68009E+18,44,1.68009E+18,imu_of_uwb_link,0,0,0.021814885,0.999762027,0,0,0,0,0,0,0,0,0,0.012024,-0.194761,-0.116767,0,0,0,0,0,0,0,0,0,-1.824805,0.301348,9.27124,0,0,0,0,0,0,0,0,0
1.68009E+18,45,1.68009E+18,imu_of_uwb_link,0,0,0.021814885,0.999762027,0,0,0,0,0,0,0,0,0,0.057777,0.041453,-0.165712,0,0,0,0,0,0,0,0,0,-1.229053,0.279814,9.35498,0,0,0,0,0,0,0,0,0
1.68009E+18,46,1.68009E+18,imu_of_uwb_link,0,0,0.021814885,0.999762027,0,0,0,0,0,0,0,0,0,0.052989,-0.038881,-0.045477,0,0,0,0,0,0,0,0,0,-1.185986,0.373125,9.510498,0,0,0,0,0,0,0,0,0
1.68009E+18,47,1.68009E+18,imu_of_uwb_link,0,0,0.021814885,0.999762027,0,0,0,0,0,0,0,0,0,0.040221,-0.027177,0.008788,0,0,0,0,0,0,0,0,0,-1.264941,0.794219,9.697119,0,0,0,0,0,0,0,0,0
1.68009E+18,48,1.68009E+18,imu_of_uwb_link,0,0,0.021814885,0.999762027,0,0,0,0,0,0,0,0,0,-0.07097,-0.041009,-0.041753,0,0,0,0,0,0,0,0,0,-1.666895,0.416191,9.340625,0,0,0,0,0,0,0,0,0
1.68009E+18,49,1.68009E+18,imu_of_uwb_link,0,0,0.021814885,0.999762027,0,0,0,0,0,0,0,0,0,-0.139067,0.223401,-0.126875,0,0,0,0,0,0,0,0,0,-0.377295,-0.045576,9.804785,0,0,0,0,0,0,0,0,0
1.68009E+18,50,1.68009E+18,imu_of_uwb_link,0,0,0.021814885,0.999762027,0,0,0,0,0,0,0,0,0,-0.054477,-0.221361,0.046029,0,0,0,0,0,0,0,0,0,-1.530518,0.418584,9.543994,0,0,0,0,0,0,0,0,0
1.68009E+18,51,1.68009E+18,imu_of_uwb_link,0,0,0.021814885,0.999762027,0,0,0,0,0,0,0,0,0,-0.109274,0.084546,-0.063566,0,0,0,0,0,0,0,0,0,-1.257764,0.021416,9.386084,0,0,0,0,0,0,0,0,0
1.68009E+18,52,1.68009E+18,imu_of_uwb_link,0,0,0.021814885,0.999762027,0,0,0,0,0,0,0,0,0,-0.005,0.009,0.004,0,0,0,0,0,0,0,0,0,-0.15,0.22,0,0,0,0,0,0,0,0,0,0
1.68009E+18,53,1.68009E+18,imu_of_uwb_link,0,0,0.021814885,0.999762027,0,0,0,0,0,0,0,0,0,0.025857,0.081886,0.057201,0,0,0,0,0,0,0,0,0,-1.719531,0.009453,9.754541,0,0,0,0,0,0,0,0,0
1.68009E+18,54,1.68009E+18,imu_of_uwb_link,0,0,0.021814885,0.999762027,0,0,0,0,0,0,0,0,0,-0.037985,0.064861,0.229041,0,0,0,0,0,0,0,0,0,-1.973145,-0.330293,9.608594,0,0,0,0,0,0,0,0,0
1.68009E+18,55,1.68009E+18,imu_of_uwb_link,0,0,0.021814885,0.999762027,0,0,0,0,0,0,0,0,0,-0.010852,0.062201,-0.01728,0,0,0,0,0,0,0,0,0,-2.025781,-0.114961,9.340625,0,0,0,0,0,0,0,0,0
1.68009E+18,56,1.68009E+18,imu_of_uwb_link,0,0,0.021814885,0.999762027,0,0,0,0,0,0,0,0,0,-0.000212,0.045177,-0.031645,0,0,0,0,0,0,0,0,0,-2.22915,-0.562373,9.477002,0,0,0,0,0,0,0,0,0
1.68009E+18,57,1.68009E+18,imu_of_uwb_link,0,0,0.021814885,0.999762027,0,0,0,0,0,0,0,0,0,-0.170988,-0.09687,0.113595,0,0,0,0,0,0,0,0,0,-1.583154,-0.598262,9.165967,0,0,0,0,0,0,0,0,0
1.68009E+18,58,1.68009E+18,imu_of_uwb_link,0,0,0.021814885,0.999762027,0,0,0,0,0,0,0,0,0,0.134919,0.28937,-0.025793,0,0,0,0,0,0,0,0,0,-2.559326,-0.222627,9.496142,0,0,0,0,0,0,0,0,0
1.68009E+18,59,1.68009E+18,imu_of_uwb_link,0,0,0.021814885,0.999762027,0,0,0,0,0,0,0,0,0,-0.043837,-0.081974,-0.022069,0,0,0,0,0,0,0,0,0,-2.803369,-0.153242,9.778467,0,0,0,0,0,0,0,0,0
1.68009E+18,60,1.68009E+18,imu_of_uwb_link,0,0,0.021814885,0.999762027,0,0,0,0,0,0,0,0,0,-0.001276,-0.142623,0.147643,0,0,0,0,0,0,0,0,0,-2.035352,-0.265693,9.433935,0,0,0,0,0,0,0,0,0
1.68009E+18,61,1.68009E+18,imu_of_uwb_link,0,0,0.021814885,0.999762027,0,0,0,0,0,0,0,0,0,0.233341,0.059541,-0.002384,0,0,0,0,0,0,0,0,0,-2.410986,0.291777,9.668408,0,0,0,0,0,0,0,0,0
1.68009E+18,62,1.68009E+18,imu_of_uwb_link,0,0,0.021814885,0.999762027,0,0,0,0,0,0,0,0,0,0.004576,0.014852,-0.024729,0,0,0,0,0,0,0,0,0,-1.920508,0.026201,9.721045,0,0,0,0,0,0,0,0,0
1.68009E+18,63,1.68009E+18,imu_of_uwb_link,0,0,0.021814885,0.999762027,0,0,0,0,0,0,0,0,0,-0.018832,-0.095274,-0.14922,0,0,0,0,0,0,0,0,0,-1.891797,-0.311152,9.2521,0,0,0,0,0,0,0,0,0
1.68009E+18,64,1.68009E+18,imu_of_uwb_link,0,0,0.021814885,0.999762027,0,0,0,0,0,0,0,0,0,0.08225,0.031877,-0.086442,0,0,0,0,0,0,0,0,0,-1.640576,-0.303975,9.512891,0,0,0,0,0,0,0,0,0
1.68009E+18,65,1.68009E+18,imu_of_uwb_link,0,0,0.021814885,0.999762027,0,0,0,0,0,0,0,0,0,-0.259302,-0.233066,0.00932,0,0,0,0,0,0,0,0,0,-1.590332,-0.131709,9.443506,0,0,0,0,0,0,0,0,0
1.68009E+18,66,1.68009E+18,imu_of_uwb_link,0,0,0.021814885,0.999762027,0,0,0,0,0,0,0,0,0,0.004576,0.058477,0.149771,0,0,0,0,0,0,0,0,0,-2.178906,0.06209,9.701904,0,0,0,0,0,0,0,0,0
1.68009E+18,67,1.68009E+18,imu_of_uwb_link,0,0,0.021814885,0.999762027,0,0,0,0,0,0,0,0,0,0.021601,-0.220297,0.191268,0,0,0,0,0,0,0,0,0,-2.585645,-0.227412,9.426758,0,0,0,0,0,0,0,0,0
1.68009E+18,68,1.68009E+18,imu_of_uwb_link,0,0,0.021814885,0.999762027,0,0,0,0,0,0,0,0,0,0.053521,-0.128791,0.040177,0,0,0,0,0,0,0,0,0,-1.621436,-0.122139,9.137256,0,0,0,0,0,0,0,0,0
1.68009E+18,69,1.68009E+18,imu_of_uwb_link,0,0,0.021814885,0.999762027,0,0,0,0,0,0,0,0,0,0.142899,0.079758,0.024748,0,0,0,0,0,0,0,0,0,-1.67168,0.789434,9.625341,0,0,0,0,0,0,0,0,0
1.68009E+18,70,1.68009E+18,imu_of_uwb_link,0,0,0.021814885,0.999762027,0,0,0,0,0,0,0,0,0,0.066822,-0.050585,0.011448,0,0,0,0,0,0,0,0,0,-1.963574,0.29417,9.855029,0,0,0,0,0,0,0,0,0
1.68009E+18,71,1.68009E+18,imu_of_uwb_link,0,0,0.021814885,0.999762027,0,0,0,0,0,0,0,0,0,0.056713,-0.095806,0.020492,0,0,0,0,0,0,0,0,0,-1.9875,0.255889,9.383692,0,0,0,0,0,0,0,0,0
1.68009E+18,72,1.68009E+18,imu_of_uwb_link,0,0,0.021814885,0.999762027,0,0,0,0,0,0,0,0,0,-0.047561,-0.049521,0.00134,0,0,0,0,0,0,0,0,0,-1.516162,0.265459,9.455469,0,0,0,0,0,0,0,0,0
1.68009E+18,73,1.68009E+18,imu_of_uwb_link,0,0,0.021814885,0.999762027,0,0,0,0,0,0,0,0,0,-0.069373,-0.067078,0.196056,0,0,0,0,0,0,0,0,0,-1.482666,0.777471,10.149317,0,0,0,0,0,0,0,0,0
1.68009E+18,74,1.68009E+18,imu_of_uwb_link,0,0,0.021814885,0.999762027,0,0,0,0,0,0,0,0,0,0.024261,0.07497,0.176372,0,0,0,0,0,0,0,0,0,-1.712353,0.557354,8.701807,0,0,0,0,0,0,0,0,0
1.68009E+18,75,1.68009E+18,imu_of_uwb_link,0,0,0.021814885,0.999762027,0,0,0,0,0,0,0,0,0,0.015216,0.164348,0.162008,0,0,0,0,0,0,0,0,0,-2.564111,1.162676,9.699512,0,0,0,0,0,0,0,0,0
1.68009E+18,76,1.68009E+18,imu_of_uwb_link,0,0,0.021814885,0.999762027,0,0,0,0,0,0,0,0,0,0.457319,-0.354896,-0.273178,0,0,0,0,0,0,0,0,0,-1.343897,1.928301,9.352588,0,0,0,0,0,0,0,0,0
1.68009E+18,77,1.68009E+18,imu_of_uwb_link,0,0,0.021814885,0.999762027,0,0,0,0,0,0,0,0,0,-0.057669,0.225529,-0.122619,0,0,0,0,0,0,0,0,0,-0.719434,1.346904,9.433935,0,0,0,0,0,0,0,0,0
1.68009E+18,78,1.68009E+18,imu_of_uwb_link,0,0,0.021814885,0.999762027,0,0,0,0,0,0,0,0,0,0.105659,0.123383,0.024216,0,0,0,0,0,0,0,0,0,-1.372607,1.495244,10.065577,0,0,0,0,0,0,0,0,0
1.68009E+18,79,1.68009E+18,imu_of_uwb_link,0,0,0.021814885,0.999762027,0,0,0,0,0,0,0,0,0,-0.054477,0.049433,0.004,0,0,0,0,0,0,0,0,0,-1.3104,1.119609,9.386084,0,0,0,0,0,0,0,0,0
1.68009E+18,80,1.68009E+18,imu_of_uwb_link,0,0,0.021814885,0.999762027,0,0,0,0,0,0,0,0,0,-0.014044,0.043049,-0.007172,0,0,0,0,0,0,0,0,0,-1.573584,1.476104,9.41958,0,0,0,0,0,0,0,0,0
1.68009E+18,81,1.68009E+18,imu_of_uwb_link,0,0,0.021814885,0.999762027,0,0,0,0,0,0,0,0,0,-0.286966,-0.010152,-0.025793,0,0,0,0,0,0,0,0,0,-1.477881,1.655547,9.26167,0,0,0,0,0,0,0,0,0
1.68009E+18,82,1.68009E+18,imu_of_uwb_link,0,0,0.021814885,0.999762027,0,0,0,0,0,0,0,0,0,-0.029473,-0.002172,-0.048137,0,0,0,0,0,0,0,0,0,-1.731494,1.578984,9.685156,0,0,0,0,0,0,0,0,0
1.68009E+18,83,1.68009E+18,imu_of_uwb_link,0,0,0.021814885,0.999762027,0,0,0,0,0,0,0,0,0,-0.191204,-0.053245,-0.044945,0,0,0,0,0,0,0,0,0,-2.097559,1.172246,9.673193,0,0,0,0,0,0,0,0,0
1.68009E+18,84,1.68009E+18,imu_of_uwb_link,0,0,0.021814885,0.999762027,0,0,0,0,0,0,0,0,0,-0.07363,-0.112299,0.130087,0,0,0,0,0,0,0,0,0,-1.403711,0.21043,9.16836,0,0,0,0,0,0,0,0,0
1.68009E+18,85,1.68009E+18,imu_of_uwb_link,0,0,0.021814885,0.999762027,0,0,0,0,0,0,0,0,0,-0.250258,-0.158584,-0.142303,0,0,0,0,0,0,0,0,0,-1.530518,0.119512,9.666016,0,0,0,0,0,0,0,0,0
1.68009E+18,86,1.68009E+18,imu_of_uwb_link,0,0,0.021814885,0.999762027,0,0,0,0,0,0,0,0,0,-0.083206,-0.089954,-0.026857,0,0,0,0,0,0,0,0,0,-1.540088,-0.538447,9.213819,0,0,0,0,0,0,0,0,0
1.68009E+18,87,1.68009E+18,imu_of_uwb_link,0,0,0.021814885,0.999762027,0,0,0,0,0,0,0,0,0,-0.042773,0.019108,0.006128,0,0,0,0,0,0,0,0,0,-1.762598,-0.356611,9.821533,0,0,0,0,0,0,0,0,0
1.68009E+18,88,1.68009E+18,imu_of_uwb_link,0,0,0.021814885,0.999762027,0,0,0,0,0,0,0,0,0,0.062034,-0.031433,-0.025261,0,0,0,0,0,0,0,0,0,-1.351074,-0.339863,9.414795,0,0,0,0,0,0,0,0,0
1.68009E+18,89,1.68009E+18,imu_of_uwb_link,0,0,0.021814885,0.999762027,0,0,0,0,0,0,0,0,0,0.00564,0.023364,0.015172,0,0,0,0,0,0,0,0,0,-1.358252,-0.232197,9.749756,0,0,0,0,0,0,0,0,0
1.68009E+18,90,1.68009E+18,imu_of_uwb_link,0,0,0.021814885,0.999762027,0,0,0,0,0,0,0,0,0,0.041285,0.008468,-0.08857,0,0,0,0,0,0,0,0,0,-1.544873,-0.404463,9.522461,0,0,0,0,0,0,0,0,0
1.68009E+18,91,1.68009E+18,imu_of_uwb_link,0,0,0.021814885,0.999762027,0,0,0,0,0,0,0,0,0,0.004576,-0.045265,-0.15986,0,0,0,0,0,0,0,0,0,-1.506592,-0.038398,9.610987,0,0,0,0,0,0,0,0,0
1.68009E+18,92,1.68009E+18,imu_of_uwb_link,0,0,0.021814885,0.999762027,0,0,0,0,0,0,0,0,0,0.07427,0.020172,-0.207741,0,0,0,0,0,0,0,0,0,-1.430029,-0.138887,9.520068,0,0,0,0,0,0,0,0,0
1.68009E+18,93,1.68009E+18,imu_of_uwb_link,0,0,0.021814885,0.999762027,0,0,0,0,0,0,0,0,0,0.014684,0.010064,-0.195505,0,0,0,0,0,0,0,0,0,-1.375,0.150615,9.859815,0,0,0,0,0,0,0,0,0
1.68009E+18,94,1.68009E+18,imu_of_uwb_link,0,0,0.021814885,0.999762027,0,0,0,0,0,0,0,0,0,0.00564,-0.058034,-0.207209,0,0,0,0,0,0,0,0,0,-1.343897,-0.186738,9.378906,0,0,0,0,0,0,0,0,0
1.68009E+18,95,1.68009E+18,imu_of_uwb_link,0,0,0.021814885,0.999762027,0,0,0,0,0,0,0,0,0,0.051393,-0.011748,-0.160924,0,0,0,0,0,0,0,0,0,-1.312793,0.131475,9.486572,0,0,0,0,0,0,0,0,0
1.68009E+18,96,1.68009E+18,imu_of_uwb_link,0,0,0.021814885,0.999762027,0,0,0,0,0,0,0,0,0,-0.059265,0.066989,-0.237534,0,0,0,0,0,0,0,0,0,-1.13335,0.124297,9.701904,0,0,0,0,0,0,0,0,0
1.68009E+18,97,1.68009E+18,imu_of_uwb_link,0,0,0.021814885,0.999762027,0,0,0,0,0,0,0,0,0,0.044477,0.011128,-0.165712,0,0,0,0,0,0,0,0,0,-1.195557,0.038164,9.689941,0,0,0,0,0,0,0,0,0
1.68009E+18,98,1.68009E+18,imu_of_uwb_link,0,0,0.021814885,0.999762027,0,0,0,0,0,0,0,0,0,-0.008192,-0.019197,-0.15454,0,0,0,0,0,0,0,0,0,-1.475488,0.198467,9.72583,0,0,0,0,0,0,0,0,0
1.68009E+18,99,1.68009E+18,imu_of_uwb_link,0,0,0.021814885,0.999762027,0,0,0,0,0,0,0,0,0,-0.120447,0.205313,0.001872,0,0,0,0,0,0,0,0,0,-0.585449,0.038164,9.49375,0,0,0,0,0,0,0,0,0
1.68009E+18,100,1.68009E+18,imu_of_uwb_link,0,0,0.021814885,0.999762027,0,0,0,0,0,0,0,0,0,-0.005532,-0.217637,0.204569,0,0,0,0,0,0,0,0,0,-1.786523,0.088408,9.79043,0,0,0,0,0,0,0,0,0
1.68009E+18,101,1.68009E+18,imu_of_uwb_link,0,0,0.021814885,0.999762027,0,0,0,0,0,0,0,0,0,-0.133747,0.032941,0.16786,0,0,0,0,0,0,0,0,0,-1.116602,0.141045,9.79043,0,0,0,0,0,0,0,0,0
1.68009E+18,102,1.68009E+18,imu_of_uwb_link,0,0,0.021814885,0.999762027,0,0,0,0,0,0,0,0,0,-0.042773,-0.025581,0.243405,0,0,0,0,0,0,0,0,0,-1.123779,-0.442744,9.26167,0,0,0,0,0,0,0,0,0
1.68009E+18,103,1.68009E+18,imu_of_uwb_link,0,0,0.021814885,0.999762027,0,0,0,0,0,0,0,0,0,-0.006064,0.074438,0.325335,0,0,0,0,0,0,0,0,0,-1.827197,0.109941,9.618164,0,0,0,0,0,0,0,0,0
1.68009E+18,104,1.68009E+18,imu_of_uwb_link,0,0,0.021814885,0.999762027,0,0,0,0,0,0,0,0,0,-0.10289,-0.020793,0.275858,0,0,0,0,0,0,0,0,0,-1.731494,-0.335078,9.701904,0,0,0,0,0,0,0,0,0
1.68009E+18,105,1.68009E+18,imu_of_uwb_link,0,0,0.021814885,0.999762027,0,0,0,0,0,0,0,0,0,-0.089058,-0.023985,0.105614,0,0,0,0,0,0,0,0,0,-2.406201,0.102764,10.16128,0,0,0,0,0,0,0,0,0
1.68009E+18,106,1.68009E+18,imu_of_uwb_link,0,0,0.021814885,0.999762027,0,0,0,0,0,0,0,0,0,-0.170988,-0.110171,0.091782,0,0,0,0,0,0,0,0,0,-2.164551,-0.363789,9.414795,0,0,0,0,0,0,0,0,0
1.68009E+18,107,1.68009E+18,imu_of_uwb_link,0,0,0.021814885,0.999762027,0,0,0,0,0,0,0,0,0,0.031177,-0.197421,0.083802,0,0,0,0,0,0,0,0,0,-1.544873,-0.370967,9.515284,0,0,0,0,0,0,0,0,0
1.68009E+18,108,1.68009E+18,imu_of_uwb_link,0,0,0.021814885,0.999762027,0,0,0,0,0,0,0,0,0,0.095018,0.020704,0.051349,0,0,0,0,0,0,0,0,0,-1.561621,-0.24416,9.785645,0,0,0,0,0,0,0,0,0
1.68009E+18,109,1.68009E+18,imu_of_uwb_link,0,0,0.021814885,0.999762027,0,0,0,0,0,0,0,0,0,0.056181,-0.06495,-0.045477,0,0,0,0,0,0,0,0,0,-1.475488,-0.351826,9.510498,0,0,0,0,0,0,0,0,0
1.68009E+18,110,1.68009E+18,imu_of_uwb_link,0,0,0.021814885,0.999762027,0,0,0,0,0,0,0,0,0,-0.058733,0.066457,0.000808,0,0,0,0,0,0,0,0,0,-1.566406,-0.043184,9.898096,0,0,0,0,0,0,0,0,0
1.68009E+18,111,1.68009E+18,imu_of_uwb_link,0,0,0.021814885,0.999762027,0,0,0,0,0,0,0,0,0,-0.013512,0.01964,0.034325,0,0,0,0,0,0,0,0,0,-1.231445,-0.727461,9.304736,0,0,0,0,0,0,0,0,0
1.68009E+18,112,1.68009E+18,imu_of_uwb_link,0,0,0.021814885,0.999762027,0,0,0,0,0,0,0,0,0,-0.043837,0.00368,-0.056649,0,0,0,0,0,0,0,0,0,-1.3104,-0.619795,9.594238,0,0,0,0,0,0,0,0,0
1.68009E+18,113,1.68009E+18,imu_of_uwb_link,0,0,0.021814885,0.999762027,0,0,0,0,0,0,0,0,0,-0.022024,-0.002704,-0.111447,0,0,0,0,0,0,0,0,0,-1.288867,-0.830342,9.433935,0,0,0,0,0,0,0,0,0
1.68009E+18,114,1.68009E+18,imu_of_uwb_link,0,0,0.021814885,0.999762027,0,0,0,0,0,0,0,0,0,-0.054477,-0.021325,-0.238598,0,0,0,0,0,0,0,0,0,-1.52334,-0.619795,9.740186,0,0,0,0,0,0,0,0,0
1.68009E+18,115,1.68009E+18,imu_of_uwb_link,0,0,0.021814885,0.999762027,0,0,0,0,0,0,0,0,0,0.052457,0.095186,-0.27637,0,0,0,0,0,0,0,0,0,-1.312793,-0.598262,9.503321,0,0,0,0,0,0,0,0,0
1.68009E+18,116,1.68009E+18,imu_of_uwb_link,0,0,0.021814885,0.999762027,0,0,0,0,0,0,0,0,0,-0.006064,0.102634,-0.220509,0,0,0,0,0,0,0,0,0,-1.276904,-0.926045,9.613379,0,0,0,0,0,0,0,0,0
1.68009E+18,117,1.68009E+18,imu_of_uwb_link,0,0,0.021814885,0.999762027,0,0,0,0,0,0,0,0,0,0.042349,-0.063354,-0.138579,0,0,0,0,0,0,0,0,0,-1.183594,-0.569551,9.615771,0,0,0,0,0,0,0,0,0
1.68009E+18,118,1.68009E+18,imu_of_uwb_link,0,0,0.021814885,0.999762027,0,0,0,0,0,0,0,0,0,0.070546,0.004212,-0.144431,0,0,0,0,0,0,0,0,0,-1.441992,-0.653291,9.764112,0,0,0,0,0,0,0,0,0
1.68009E+18,119,1.68009E+18,imu_of_uwb_link,0,0,0.021814885,0.999762027,0,0,0,0,0,0,0,0,0,0.005108,-0.029837,-0.121555,0,0,0,0,0,0,0,0,0,-1.260156,-0.411641,9.579883,0,0,0,0,0,0,0,0,0
1.68009E+18,120,1.68009E+18,imu_of_uwb_link,0,0,0.021814885,0.999762027,0,0,0,0,0,0,0,0,0,0.121619,-0.038349,0.019428,0,0,0,0,0,0,0,0,0,-1.590332,-0.306367,9.359766,0,0,0,0,0,0,0,0,0
1.68009E+18,121,1.68009E+18,imu_of_uwb_link,0,0,0.021814885,0.999762027,0,0,0,0,0,0,0,0,0,-0.014044,-0.078782,-0.020473,0,0,0,0,0,0,0,0,0,-0.963477,-0.335078,9.467432,0,0,0,0,0,0,0,0,0
1.68009E+18,122,1.68009E+18,imu_of_uwb_link,0,0,0.021814885,0.999762027,0,0,0,0,0,0,0,0,0,0.085974,0.005276,-0.038561,0,0,0,0,0,0,0,0,0,-0.6979,0.126689,9.864599,0,0,0,0,0,0,0,0,0
1.68009E+18,123,1.68009E+18,imu_of_uwb_link,0,0,0.021814885,0.999762027,0,0,0,0,0,0,0,0,0,-0.029473,-0.038881,0.082206,0,0,0,0,0,0,0,0,0,-0.695508,0.014238,9.993799,0,0,0,0,0,0,0,0,0
1.68009E+18,124,1.68009E+18,imu_of_uwb_link,0,0,0.021814885,0.999762027,0,0,0,0,0,0,0,0,0,-0.000212,0.002084,0.100826,0,0,0,0,0,0,0,0,0,-0.542383,-0.081465,9.737793,0,0,0,0,0,0,0,0,0
1.68009E+18,125,1.68009E+18,imu_of_uwb_link,0,0,0.021814885,0.999762027,0,0,0,0,0,0,0,0,0,-0.050753,-0.005364,0.106146,0,0,0,0,0,0,0,0,0,-0.963477,-0.213057,9.606201,0,0,0,0,0,0,0,0,0
1.68009E+18,126,1.68009E+18,imu_of_uwb_link,0,0,0.021814885,0.999762027,0,0,0,0,0,0,0,0,0,-0.059797,0.051029,0.101358,0,0,0,0,0,0,0,0,0,-0.858203,-0.043184,9.850245,0,0,0,0,0,0,0,0,0
1.68009E+18,127,1.68009E+18,imu_of_uwb_link,0,0,0.021814885,0.999762027,0,0,0,0,0,0,0,0,0,-0.02628,0.050497,0.148707,0,0,0,0,0,0,0,0,0,-0.92998,-0.320723,9.649267,0,0,0,0,0,0,0,0,0
1.68009E+18,128,1.68009E+18,imu_of_uwb_link,0,0,0.021814885,0.999762027,0,0,0,0,0,0,0,0,0,-0.049689,-0.042605,0.25511,0,0,0,0,0,0,0,0,0,-0.992188,-0.3279,9.57749,0,0,0,0,0,0,0,0,0
1.68009E+18,129,1.68009E+18,imu_of_uwb_link,0,0,0.021814885,0.999762027,0,0,0,0,0,0,0,0,0,0.012024,0.013256,0.154559,0,0,0,0,0,0,0,0,0,-1.279297,-0.335078,9.64209,0,0,0,0,0,0,0,0,0
1.68009E+18,130,1.68009E+18,imu_of_uwb_link,0,0,0.021814885,0.999762027,0,0,0,0,0,0,0,0,0,0.001916,0.031345,0.19446,0,0,0,0,0,0,0,0,0,-1.346289,-0.299189,9.529638,0,0,0,0,0,0,0,0,0
1.68009E+18,131,1.68009E+18,imu_of_uwb_link,0,0,0.021814885,0.999762027,0,0,0,0,0,0,0,0,0,-0.103422,0.073373,0.100294,0,0,0,0,0,0,0,0,0,-1.29126,-0.201094,9.472217,0,0,0,0,0,0,0,0,0
1.68009E+18,132,1.68009E+18,imu_of_uwb_link,0,0,0.021814885,0.999762027,0,0,0,0,0,0,0,0,0,0.121619,0.129767,0.135407,0,0,0,0,0,0,0,0,0,-0.848633,-0.30876,10.340723,0,0,0,0,0,0,0,0,0
1.68009E+18,133,1.68009E+18,imu_of_uwb_link,0,0,0.021814885,0.999762027,0,0,0,0,0,0,0,0,0,-0.067777,-0.047393,0.110402,0,0,0,0,0,0,0,0,0,-1.499414,-0.359004,9.596631,0,0,0,0,0,0,0,0,0
1.68009E+18,134,1.68009E+18,imu_of_uwb_link,0,0,0.021814885,0.999762027,0,0,0,0,0,0,0,0,0,-0.011384,0.046241,0.06997,0,0,0,0,0,0,0,0,0,-1.817627,-0.143672,9.613379,0,0,0,0,0,0,0,0,0
1.68009E+18,135,1.68009E+18,imu_of_uwb_link,0,0,0.021814885,0.999762027,0,0,0,0,0,0,0,0,0,-0.011384,0.008468,0.067309,0,0,0,0,0,0,0,0,0,-1.652539,-0.277656,9.343018,0,0,0,0,0,0,0,0,0
1.68009E+18,136,1.68009E+18,imu_of_uwb_link,0,0,0.021814885,0.999762027,0,0,0,0,0,0,0,0,0,0.031177,0.086142,0.038581,0,0,0,0,0,0,0,0,0,-1.525732,-0.294404,9.689941,0,0,0,0,0,0,0,0,0
1.68009E+18,137,1.68009E+18,imu_of_uwb_link,0,0,0.021814885,0.999762027,0,0,0,0,0,0,0,0,0,-0.005,0.009,0.004,0,0,0,0,0,0,0,0,0,-0.15,0.22,0,0,0,0,0,0,0,0,0,0
1.68009E+18,138,1.68009E+18,imu_of_uwb_link,0,0,0.021814885,0.999762027,0,0,0,0,0,0,0,0,0,0.069482,0.005808,-0.015684,0,0,0,0,0,0,0,0,0,-1.664502,-0.292012,9.663623,0,0,0,0,0,0,0,0,0
1.68009E+18,139,1.68009E+18,imu_of_uwb_link,0,0,0.021814885,0.999762027,0,0,0,0,0,0,0,0,0,0.132259,0.023364,0.049753,0,0,0,0,0,0,0,0,0,-1.738672,-0.158027,9.400439,0,0,0,0,0,0,0,0,0
1.68009E+18,140,1.68009E+18,imu_of_uwb_link,0,0,0.021814885,0.999762027,0,0,0,0,0,0,0,0,0,0.104595,-0.042073,-0.101338,0,0,0,0,0,0,0,0,0,-1.573584,0.992803,9.610987,0,0,0,0,0,0,0,0,0
1.68009E+18,141,1.68009E+18,imu_of_uwb_link,0,0,0.021814885,0.999762027,0,0,0,0,0,0,0,0,0,0.046073,-0.189973,-0.224765,0,0,0,0,0,0,0,0,0,-1.834375,0.834893,9.543994,0,0,0,0,0,0,0,0,0
1.68009E+18,142,1.68009E+18,imu_of_uwb_link,0,0,0.021814885,0.999762027,0,0,0,0,0,0,0,0,0,0.020005,-0.016537,-0.275306,0,0,0,0,0,0,0,0,0,-1.61665,0.734404,9.089404,0,0,0,0,0,0,0,0,0
1.68009E+18,143,1.68009E+18,imu_of_uwb_link,0,0,0.021814885,0.999762027,0,0,0,0,0,0,0,0,0,0.058841,0.01698,-0.399265,0,0,0,0,0,0,0,0,0,-1.731494,1.291875,9.747363,0,0,0,0,0,0,0,0,0
1.68009E+18,144,1.68009E+18,imu_of_uwb_link,0,0,0.021814885,0.999762027,0,0,0,0,0,0,0,0,0,0.074802,-0.18146,-0.339148,0,0,0,0,0,0,0,0,0,-0.860596,0.98084,9.599024,0,0,0,0,0,0,0,0,0
1.68009E+18,145,1.68009E+18,imu_of_uwb_link,0,0,0.021814885,0.999762027,0,0,0,0,0,0,0,0,0,0.054585,-0.035689,-0.246046,0,0,0,0,0,0,0,0,0,-1.355859,0.679375,9.366943,0,0,0,0,0,0,0,0,0
1.68009E+18,146,1.68009E+18,imu_of_uwb_link,0,0,0.021814885,0.999762027,0,0,0,0,0,0,0,0,0,0.078526,0.054753,-0.303503,0,0,0,0,0,0,0,0,0,-1.22666,0.978447,9.366943,0,0,0,0,0,0,0,0,0
1.68009E+18,147,1.68009E+18,imu_of_uwb_link,0,0,0.021814885,0.999762027,0,0,0,0,0,0,0,0,0,0.112043,-0.094742,-0.293395,0,0,0,0,0,0,0,0,0,-1.00415,1.141143,9.709082,0,0,0,0,0,0,0,0,0
1.68009E+18,148,1.68009E+18,imu_of_uwb_link,0,0,0.021814885,0.999762027,0,0,0,0,0,0,0,0,0,0.054053,-0.026645,-0.304567,0,0,0,0,0,0,0,0,0,-0.913232,1.27752,9.768896,0,0,0,0,0,0,0,0,0
1.68009E+18,149,1.68009E+18,imu_of_uwb_link,0,0,0.021814885,0.999762027,0,0,0,0,0,0,0,0,0,0.121087,0.037729,-0.234873,0,0,0,0,0,0,0,0,0,-0.671582,1.29666,9.455469,0,0,0,0,0,0,0,0,0
1.68009E+18,150,1.68009E+18,imu_of_uwb_link,0,0,0.021814885,0.999762027,0,0,0,0,0,0,0,0,0,-0.164604,-0.025581,-0.115703,0,0,0,0,0,0,0,0,0,-0.609375,1.272734,9.929199,0,0,0,0,0,0,0,0,0
1.68009E+18,151,1.68009E+18,imu_of_uwb_link,0,0,0.021814885,0.999762027,0,0,0,0,0,0,0,0,0,-0.043837,0.061137,-0.197101,0,0,0,0,0,0,0,0,0,-1.080713,1.069365,9.771289,0,0,0,0,0,0,0,0,0
1.68009E+18,152,1.68009E+18,imu_of_uwb_link,0,0,0.021814885,0.999762027,0,0,0,0,0,0,0,0,0,0.000852,0.008468,-0.198165,0,0,0,0,0,0,0,0,0,-0.618945,0.557354,9.721045,0,0,0,0,0,0,0,0,0
1.68009E+18,153,1.68009E+18,imu_of_uwb_link,0,0,0.021814885,0.999762027,0,0,0,0,0,0,0,0,0,-0.034793,0.134555,-0.059841,0,0,0,0,0,0,0,0,0,-0.628516,0.736797,10.091894,0,0,0,0,0,0,0,0,0
1.68009E+18,154,1.68009E+18,imu_of_uwb_link,0,0,0.021814885,0.999762027,0,0,0,0,0,0,0,0,0,0.128003,0.058477,-0.002916,0,0,0,0,0,0,0,0,0,-1.554443,1.318193,9.922022,0,0,0,0,0,0,0,0,0
1.68009E+18,155,1.68009E+18,imu_of_uwb_link,0,0,0.021814885,0.999762027,0,0,0,0,0,0,0,0,0,-0.095442,0.051029,-0.015684,0,0,0,0,0,0,0,0,0,-1.250586,0.846855,9.929199,0,0,0,0,0,0,0,0,0
1.68009E+18,156,1.68009E+18,imu_of_uwb_link,0,0,0.021814885,0.999762027,0,0,0,0,0,0,0,0,0,-0.17684,-0.046861,-0.037497,0,0,0,0,0,0,0,0,0,-1.138135,0.782256,9.996191,0,0,0,0,0,0,0,0,0
1.68009E+18,157,1.68009E+18,imu_of_uwb_link,0,0,0.021814885,0.999762027,0,0,0,0,0,0,0,0,0,-0.150771,0.078162,0.196056,0,0,0,0,0,0,0,0,0,-1.389355,0.176934,9.850245,0,0,0,0,0,0,0,0,0
1.68009E+18,158,1.68009E+18,imu_of_uwb_link,0,0,0.021814885,0.999762027,0,0,0,0,0,0,0,0,0,-0.203973,-0.039413,0.27373,0,0,0,0,0,0,0,0,0,-1.547266,-0.179561,9.675586,0,0,0,0,0,0,0,0,0
1.68009E+18,159,1.68009E+18,imu_of_uwb_link,0,0,0.021814885,0.999762027,0,0,0,0,0,0,0,0,0,-0.02628,0.054221,0.149239,0,0,0,0,0,0,0,0,0,-1.879834,-0.083857,9.412402,0,0,0,0,0,0,0,0,0
1.68009E+18,160,1.68009E+18,imu_of_uwb_link,0,0,0.021814885,0.999762027,0,0,0,0,0,0,0,0,0,-0.144919,0.189352,0.308843,0,0,0,0,0,0,0,0,0,-2.509082,-0.105391,9.584668,0,0,0,0,0,0,0,0,0
1.68009E+18,161,1.68009E+18,imu_of_uwb_link,0,0,0.021814885,0.999762027,0,0,0,0,0,0,0,0,0,-0.091186,0.10157,0.297139,0,0,0,0,0,0,0,0,0,-2.614355,-0.61501,9.589453,0,0,0,0,0,0,0,0,0
1.68009E+18,162,1.68009E+18,imu_of_uwb_link,0,0,0.021814885,0.999762027,0,0,0,0,0,0,0,0,0,-0.007128,0.17552,0.34768,0,0,0,0,0,0,0,0,0,-3.406299,-0.390107,9.244922,0,0,0,0,0,0,0,0,0
1.68009E+18,163,1.68009E+18,imu_of_uwb_link,0,0,0.021814885,0.999762027,0,0,0,0,0,0,0,0,0,0.060438,-0.067078,0.238085,0,0,0,0,0,0,0,0,0,-3.037842,-0.662861,8.88125,0,0,0,0,0,0,0,0,0
1.68009E+18,164,1.68009E+18,imu_of_uwb_link,0,0,0.021814885,0.999762027,0,0,0,0,0,0,0,0,0,-0.116723,-0.309675,0.218401,0,0,0,0,0,0,0,0,0,-2.480371,-0.181953,9.311914,0,0,0,0,0,0,0,0,0
1.68009E+18,165,1.68009E+18,imu_of_uwb_link,0,0,0.021814885,0.999762027,0,0,0,0,0,0,0,0,0,0.070546,-0.237854,0.167328,0,0,0,0,0,0,0,0,0,-1.958789,-0.15085,9.137256,0,0,0,0,0,0,0,0,0
1.68009E+18,166,1.68009E+18,imu_of_uwb_link,0,0,0.021814885,0.999762027,0,0,0,0,0,0,0,0,0,0.118959,-0.036753,0.145515,0,0,0,0,0,0,0,0,0,-1.427637,0.004668,9.551172,0,0,0,0,0,0,0,0,0
1.68009E+18,167,1.68009E+18,imu_of_uwb_link,0,0,0.021814885,0.999762027,0,0,0,0,0,0,0,0,0,-0.039581,-0.07559,0.174244,0,0,0,0,0,0,0,0,0,-1.470703,0.291777,9.441113,0,0,0,0,0,0,0,0,0
1.68009E+18,168,1.68009E+18,imu_of_uwb_link,0,0,0.021814885,0.999762027,0,0,0,0,0,0,0,0,0,-0.132151,-0.056438,0.351936,0,0,0,0,0,0,0,0,0,-1.860693,0.710479,9.766504,0,0,0,0,0,0,0,0,0
1.68009E+18,169,1.68009E+18,imu_of_uwb_link,0,0,0.021814885,0.999762027,0,0,0,0,0,0,0,0,0,-0.060861,-0.114427,0.043369,0,0,0,0,0,0,0,0,0,-0.587842,0.365947,10.048828,0,0,0,0,0,0,0,0,0
1.68009E+18,170,1.68009E+18,imu_of_uwb_link,0,0,0.021814885,0.999762027,0,0,0,0,0,0,0,0,0,-0.030005,0.013788,0.027941,0,0,0,0,0,0,0,0,0,-1.743457,0.169756,9.689941,0,0,0,0,0,0,0,0,0
1.68009E+18,171,1.68009E+18,imu_of_uwb_link,0,0,0.021814885,0.999762027,0,0,0,0,0,0,0,0,0,-0.035325,-0.044201,0.029005,0,0,0,0,0,0,0,0,0,-1.288867,-0.117354,9.510498,0,0,0,0,0,0,0,0,0
1.68009E+18,172,1.68009E+18,imu_of_uwb_link,0,0,0.021814885,0.999762027,0,0,0,0,0,0,0,0,0,-0.059797,-0.033029,-0.058777,0,0,0,0,0,0,0,0,0,-1.255371,-0.02165,9.718653,0,0,0,0,0,0,0,0,0
1.68009E+18,173,1.68009E+18,imu_of_uwb_link,0,0,0.021814885,0.999762027,0,0,0,0,0,0,0,0,0,0.001384,-0.028773,0.002936,0,0,0,0,0,0,0,0,0,-0.980225,-0.114961,9.759326,0,0,0,0,0,0,0,0,0
1.68009E+18,174,1.68009E+18,imu_of_uwb_link,0,0,0.021814885,0.999762027,0,0,0,0,0,0,0,0,0,0.022133,-0.038881,-0.016748,0,0,0,0,0,0,0,0,0,-1.22666,-0.325508,9.536817,0,0,0,0,0,0,0,0,0
1.68009E+18,175,1.68009E+18,imu_of_uwb_link,0,0,0.021814885,0.999762027,0,0,0,0,0,0,0,0,0,0.015216,-0.025581,-0.026325,0,0,0,0,0,0,0,0,0,-1.147705,-0.189131,9.613379,0,0,0,0,0,0,0,0,0
1.68009E+18,176,1.68009E+18,imu_of_uwb_link,0,0,0.021814885,0.999762027,0,0,0,0,0,0,0,0,0,-0.052881,-0.07559,-0.025793,0,0,0,0,0,0,0,0,0,-0.99458,-0.064717,9.785645,0,0,0,0,0,0,0,0,0
1.68009E+18,177,1.68009E+18,imu_of_uwb_link,0,0,0.021814885,0.999762027,0,0,0,0,0,0,0,0,0,-0.044901,-0.114959,0.035921,0,0,0,0,0,0,0,0,0,-0.315088,-0.105391,9.570313,0,0,0,0,0,0,0,0,0
1.68009E+18,178,1.68009E+18,imu_of_uwb_link,0,0,0.021814885,0.999762027,0,0,0,0,0,0,0,0,0,0.049797,0.041453,-0.015152,0,0,0,0,0,0,0,0,0,-0.719434,0.148223,9.972265,0,0,0,0,0,0,0,0,0
1.68009E+18,179,1.68009E+18,imu_of_uwb_link,0,0,0.021814885,0.999762027,0,0,0,0,0,0,0,0,0,0.010428,-0.022389,0.015172,0,0,0,0,0,0,0,0,0,-0.805566,0.078838,9.347803,0,0,0,0,0,0,0,0,0
1.68009E+18,180,1.68009E+18,imu_of_uwb_link,0,0,0.021814885,0.999762027,0,0,0,0,0,0,0,0,0,0.033305,-0.01228,0.024748,0,0,0,0,0,0,0,0,0,-0.731396,0.059697,9.960302,0,0,0,0,0,0,0,0,0
1.68009E+18,181,1.68009E+18,imu_of_uwb_link,0,0,0.021814885,0.999762027,0,0,0,0,0,0,0,0,0,0.022133,-0.071866,-0.022069,0,0,0,0,0,0,0,0,0,-0.903662,0.184111,9.682764,0,0,0,0,0,0,0,0,0
1.68009E+18,182,1.68009E+18,imu_of_uwb_link,0,0,0.021814885,0.999762027,0,0,0,0,0,0,0,0,0,-0.030005,-0.01228,0.020492,0,0,0,0,0,0,0,0,0,-0.729004,0.418584,9.7354,0,0,0,0,0,0,0,0,0
1.68009E+18,183,1.68009E+18,imu_of_uwb_link,0,0,0.021814885,0.999762027,0,0,0,0,0,0,0,0,0,0.083314,0.002084,0.002404,0,0,0,0,0,0,0,0,0,-0.429932,-0.081465,9.522461,0,0,0,0,0,0,0,0,0
1.68009E+18,184,1.68009E+18,imu_of_uwb_link,0,0,0.021814885,0.999762027,0,0,0,0,0,0,0,0,0,-0.062457,-0.060162,0.090186,0,0,0,0,0,0,0,0,0,-1.415674,-0.818379,9.780859,0,0,0,0,0,0,0,0,0
1.68009E+18,185,1.68009E+18,imu_of_uwb_link,0,0,0.021814885,0.999762027,0,0,0,0,0,0,0,0,0,-0.062989,-0.116023,0.054541,0,0,0,0,0,0,0,0,0,-1.205127,0.227178,9.663623,0,0,0,0,0,0,0,0,0
1.68009E+18,186,1.68009E+18,imu_of_uwb_link,0,0,0.021814885,0.999762027,0,0,0,0,0,0,0,0,0,-0.139067,-0.035689,-0.142303,0,0,0,0,0,0,0,0,0,-1.20752,0.468828,10.060791,0,0,0,0,0,0,0,0,0
1.68009E+18,187,1.68009E+18,imu_of_uwb_link,0,0,0.021814885,0.999762027,0,0,0,0,0,0,0,0,0,-0.090654,0.009532,-0.220509,0,0,0,0,0,0,0,0,0,-1.482666,0.208037,9.199463,0,0,0,0,0,0,0,0,0
1.68009E+18,188,1.68009E+18,imu_of_uwb_link,0,0,0.021814885,0.999762027,0,0,0,0,0,0,0,0,0,0.077994,0.037729,-0.287011,0,0,0,0,0,0,0,0,0,-0.197852,0.349199,10.113428,0,0,0,0,0,0,0,0,0
1.68009E+18,189,1.68009E+18,imu_of_uwb_link,0,0,0.021814885,0.999762027,0,0,0,0,0,0,0,0,0,-0.037985,0.118063,-0.141239,0,0,0,0,0,0,0,0,0,-1.441992,0.497539,9.797607,0,0,0,0,0,0,0,0,0
1.68009E+18,190,1.68009E+18,imu_of_uwb_link,0,0,0.021814885,0.999762027,0,0,0,0,0,0,0,0,0,-0.024152,-0.037817,-0.244982,0,0,0,0,0,0,0,0,0,-0.712256,0.251104,9.467432,0,0,0,0,0,0,0,0,0
1.68009E+18,191,1.68009E+18,imu_of_uwb_link,0,0,0.021814885,0.999762027,0,0,0,0,0,0,0,0,0,0.004576,0.026024,-0.272114,0,0,0,0,0,0,0,0,0,-0.717041,0.141045,9.850245,0,0,0,0,0,0,0,0,0
1.68009E+18,192,1.68009E+18,imu_of_uwb_link,0,0,0.021814885,0.999762027,0,0,0,0,0,0,0,0,0,-0.024684,-0.005364,-0.229553,0,0,0,0,0,0,0,0,0,-0.666797,0.042949,9.579883,0,0,0,0,0,0,0,0,0
1.68009E+18,193,1.68009E+18,imu_of_uwb_link,0,0,0.021814885,0.999762027,0,0,0,0,0,0,0,0,0,0.025325,-0.066014,-0.16252,0,0,0,0,0,0,0,0,0,-0.544775,-0.414033,9.721045,0,0,0,0,0,0,0,0,0
1.68009E+18,194,1.68009E+18,imu_of_uwb_link,0,0,0.021814885,0.999762027,0,0,0,0,0,0,0,0,0,-0.030537,-0.122407,-0.071014,0,0,0,0,0,0,0,0,0,-0.757715,0.028594,9.828711,0,0,0,0,0,0,0,0,0
1.68009E+18,195,1.68009E+18,imu_of_uwb_link,0,0,0.021814885,0.999762027,0,0,0,0,0,0,0,0,0,-0.227913,-0.169224,0.036453,0,0,0,0,0,0,0,0,0,-0.664404,0.021416,9.563135,0,0,0,0,0,0,0,0,0
1.68009E+18,196,1.68009E+18,imu_of_uwb_link,0,0,0.021814885,0.999762027,0,0,0,0,0,0,0,0,0,-0.079482,-0.025581,-0.068886,0,0,0,0,0,0,0,0,0,0.409863,-0.878193,9.460254,0,0,0,0,0,0,0,0,0
1.68009E+18,197,1.68009E+18,imu_of_uwb_link,0,0,0.021814885,0.999762027,0,0,0,0,0,0,0,0,0,-0.257706,-0.213913,0.225849,0,0,0,0,0,0,0,0,0,-0.240918,-0.720283,9.620557,0,0,0,0,0,0,0,0,0
1.68009E+18,198,1.68009E+18,imu_of_uwb_link,0,0,0.021814885,0.999762027,0,0,0,0,0,0,0,0,0,0.017877,0.161155,0.038049,0,0,0,0,0,0,0,0,0,-0.499316,-0.483418,9.610987,0,0,0,0,0,0,0,0,0
1.68009E+18,199,1.68009E+18,imu_of_uwb_link,0,0,0.021814885,0.999762027,0,0,0,0,0,0,0,0,0,-0.099166,-0.070802,0.154559,0,0,0,0,0,0,0,0,0,-0.922803,-0.131709,9.740186,0,0,0,0,0,0,0,0,0
1.68009E+18,200,1.68009E+18,imu_of_uwb_link,0,0,0.021814885,0.999762027,0,0,0,0,0,0,0,0,0,-0.102358,-0.00962,0.090186,0,0,0,0,0,0,0,0,0,-0.22417,-0.737031,9.697119,0,0,0,0,0,0,0,0,0
1.68009E+18,201,1.68009E+18,imu_of_uwb_link,0,0,0.021814885,0.999762027,0,0,0,0,0,0,0,0,0,-0.013512,0.019108,0.225849,0,0,0,0,0,0,0,0,0,-0.547168,-0.701143,9.488965,0,0,0,0,0,0,0,0,0
1.68009E+18,202,1.68009E+18,imu_of_uwb_link,0,0,0.021814885,0.999762027,0,0,0,0,0,0,0,0,0,-0.033729,-0.013877,0.201377,0,0,0,0,0,0,0,0,0,-0.915625,-0.567158,9.539209,0,0,0,0,0,0,0,0,0
1.68009E+18,203,1.68009E+18,imu_of_uwb_link,0,0,0.021814885,0.999762027,0,0,0,0,0,0,0,0,0,0.032241,0.073905,0.040709,0,0,0,0,0,0,0,0,0,-0.817529,-0.909297,9.532031,0,0,0,0,0,0,0,0,0
1.68009E+18,204,1.68009E+18,imu_of_uwb_link,0,0,0.021814885,0.999762027,0,0,0,0,0,0,0,0,0,-0.033197,-0.057502,0.142323,0,0,0,0,0,0,0,0,0,-1.138135,-0.23459,9.88374,0,0,0,0,0,0,0,0,0
1.68009E+18,205,1.68009E+18,imu_of_uwb_link,0,0,0.021814885,0.999762027,0,0,0,0,0,0,0,0,0,0.075334,0.0223,0.105082,0,0,0,0,0,0,0,0,0,-0.970654,-0.741816,9.560742,0,0,0,0,0,0,0,0,0
1.68009E+18,206,1.68009E+18,imu_of_uwb_link,0,0,0.021814885,0.999762027,0,0,0,0,0,0,0,0,0,0.059373,0.00102,0.082206,0,0,0,0,0,0,0,0,0,-1.52334,-0.808809,9.304736,0,0,0,0,0,0,0,0,0
1.68009E+18,207,1.68009E+18,imu_of_uwb_link,0,0,0.021814885,0.999762027,0,0,0,0,0,0,0,0,0,-0.032665,-0.060162,0.131683,0,0,0,0,0,0,0,0,0,-0.714648,-0.411641,9.941162,0,0,0,0,0,0,0,0,0
1.68009E+18,208,1.68009E+18,imu_of_uwb_link,0,0,0.021814885,0.999762027,0,0,0,0,0,0,0,0,0,0.067354,0.036665,0.127427,0,0,0,0,0,0,0,0,0,-1.073535,-0.059932,9.560742,0,0,0,0,0,0,0,0,0
1.68009E+18,209,1.68009E+18,imu_of_uwb_link,0,0,0.021814885,0.999762027,0,0,0,0,0,0,0,0,0,0.030113,-0.024517,0.141259,0,0,0,0,0,0,0,0,0,-1.00415,0.193682,9.776074,0,0,0,0,0,0,0,0,0
1.68009E+18,210,1.68009E+18,imu_of_uwb_link,0,0,0.021814885,0.999762027,0,0,0,0,0,0,0,0,0,0.080122,-0.060694,0.168924,0,0,0,0,0,0,0,0,0,-1.327148,-0.30876,9.689941,0,0,0,0,0,0,0,0,0
1.68009E+18,211,1.68009E+18,imu_of_uwb_link,0,0,0.021814885,0.999762027,0,0,0,0,0,0,0,0,0,-0.09225,-0.036221,0.079014,0,0,0,0,0,0,0,0,0,-0.669189,-0.059932,9.474609,0,0,0,0,0,0,0,0,0
1.68009E+18,212,1.68009E+18,imu_of_uwb_link,0,0,0.021814885,0.999762027,0,0,0,0,0,0,0,0,0,-0.086398,-0.036753,-0.008768,0,0,0,0,0,0,0,0,0,-0.305518,-0.62458,9.235352,0,0,0,0,0,0,0,0,0
1.68009E+18,213,1.68009E+18,imu_of_uwb_link,0,0,0.021814885,0.999762027,0,0,0,0,0,0,0,0,0,-0.097038,-4.40E-05,-0.033773,0,0,0,0,0,0,0,0,0,-0.30791,0.078838,10.008154,0,0,0,0,0,0,0,0,0
1.68009E+18,214,1.68009E+18,imu_of_uwb_link,0,0,0.021814885,0.999762027,0,0,0,0,0,0,0,0,0,-0.007128,-0.033561,0.035921,0,0,0,0,0,0,0,0,0,-0.606982,-0.241768,9.587061,0,0,0,0,0,0,0,0,0
1.68009E+18,215,1.68009E+18,imu_of_uwb_link,0,0,0.021814885,0.999762027,0,0,0,0,0,0,0,0,0,0.020537,0.01964,0.01198,0,0,0,0,0,0,0,0,0,-0.451465,-0.397285,9.697119,0,0,0,0,0,0,0,0,0
1.68009E+18,216,1.68009E+18,imu_of_uwb_link,0,0,0.021814885,0.999762027,0,0,0,0,0,0,0,0,0,-0.006596,0.041985,-0.022601,0,0,0,0,0,0,0,0,0,-0.578271,-0.351826,9.57749,0,0,0,0,0,0,0,0,0
1.68009E+18,217,1.68009E+18,imu_of_uwb_link,0,0,0.021814885,0.999762027,0,0,0,0,0,0,0,0,0,0.004576,0.018044,-0.023665,0,0,0,0,0,0,0,0,0,-0.489746,-0.440352,9.637304,0,0,0,0,0,0,0,0,0
1.68009E+18,218,1.68009E+18,imu_of_uwb_link,0,0,0.021814885,0.999762027,0,0,0,0,0,0,0,0,0,-0.007128,0.028152,-0.281159,0,0,0,0,0,0,0,0,0,-0.417969,-0.507344,9.503321,0,0,0,0,0,0,0,0,0
1.68009E+18,219,1.68009E+18,imu_of_uwb_link,0,0,0.021814885,0.999762027,0,0,0,0,0,0,0,0,0,0.599366,0.506431,-0.094422,0,0,0,0,0,0,0,0,0,-0.831885,-1.249043,9.412402,0,0,0,0,0,0,0,0,0
1.68009E+18,220,1.68009E+18,imu_of_uwb_link,0,0,0.021814885,0.999762027,0,0,0,0,0,0,0,0,0,-0.151303,-0.192633,0.176904,0,0,0,0,0,0,0,0,0,-1.109424,0.653057,9.285596,0,0,0,0,0,0,0,0,0
1.68009E+18,221,1.68009E+18,imu_of_uwb_link,0,0,0.021814885,0.999762027,0,0,0,0,0,0,0,0,0,-0.056073,-0.026645,0.083802,0,0,0,0,0,0,0,0,0,-0.946728,0.8325,9.666016,0,0,0,0,0,0,0,0,0
1.68009E+18,222,1.68009E+18,imu_of_uwb_link,0,0,0.021814885,0.999762027,0,0,0,0,0,0,0,0,0,0.007236,0.023896,-0.040689,0,0,0,0,0,0,0,0,0,-0.786426,0.363555,9.625341,0,0,0,0,0,0,0,0,0
1.68009E+18,223,1.68009E+18,imu_of_uwb_link,0,0,0.021814885,0.999762027,0,0,0,0,0,0,0,0,0,-0.062457,-0.00962,0.100826,0,0,0,0,0,0,0,0,0,-0.499316,0.576494,9.821533,0,0,0,0,0,0,0,0,0
1.68009E+18,224,1.68009E+18,imu_of_uwb_link,0,0,0.021814885,0.999762027,0,0,0,0,0,0,0,0,0,-0.018832,-0.097402,-0.049201,0,0,0,0,0,0,0,0,0,-0.757715,0.22957,9.773682,0,0,0,0,0,0,0,0,0
1.68009E+18,225,1.68009E+18,imu_of_uwb_link,0,0,0.021814885,0.999762027,0,0,0,0,0,0,0,0,0,0.089166,0.122319,-0.106659,0,0,0,0,0,0,0,0,0,-0.98501,0.717656,10.326367,0,0,0,0,0,0,0,0,0
1.68009E+18,226,1.68009E+18,imu_of_uwb_link,0,0,0.021814885,0.999762027,0,0,0,0,0,0,0,0,0,-0.339104,0.029216,-0.168904,0,0,0,0,0,0,0,0,0,-0.413184,-0.693965,9.749756,0,0,0,0,0,0,0,0,0
1.68009E+18,227,1.68009E+18,imu_of_uwb_link,0,0,0.021814885,0.999762027,0,0,0,0,0,0,0,0,0,0.210465,-0.086762,0.205101,0,0,0,0,0,0,0,0,0,0.400293,-1.196406,9.596631,0,0,0,0,0,0,0,0,0
1.68009E+18,228,1.68009E+18,imu_of_uwb_link,0,0,0.021814885,0.999762027,0,0,0,0,0,0,0,0,0,0.278563,0.231913,-0.019941,0,0,0,0,0,0,0,0,0,-0.231348,-0.923652,9.268847,0,0,0,0,0,0,0,0,0
1.68009E+18,229,1.68009E+18,imu_of_uwb_link,0,0,0.021814885,0.999762027,0,0,0,0,0,0,0,0,0,0.074802,0.035601,0.155091,0,0,0,0,0,0,0,0,0,0.460107,-0.928438,9.326269,0,0,0,0,0,0,0,0,0
1.68009E+18,230,1.68009E+18,imu_of_uwb_link,0,0,0.021814885,0.999762027,0,0,0,0,0,0,0,0,0,0.195037,0.140939,0.275326,0,0,0,0,0,0,0,0,0,-0.291162,-1.550508,9.704297,0,0,0,0,0,0,0,0,0
1.68009E+18,231,1.68009E+18,imu_of_uwb_link,0,0,0.021814885,0.999762027,0,0,0,0,0,0,0,0,0,-0.939745,0.207441,-0.32904,0,0,0,0,0,0,0,0,0,-0.231348,-0.670039,9.811963,0,0,0,0,0,0,0,0,0
1.68009E+18,232,1.68009E+18,imu_of_uwb_link,0,0,0.021814885,0.999762027,0,0,0,0,0,0,0,0,0,0.644055,-0.18412,0.3663,0,0,0,0,0,0,0,0,0,-0.657227,-2.064912,9.546387,0,0,0,0,0,0,0,0,0
1.68009E+18,233,1.68009E+18,imu_of_uwb_link,0,0,0.021814885,0.999762027,0,0,0,0,0,0,0,0,0,-0.008192,0.094654,-0.288075,0,0,0,0,0,0,0,0,0,1.831055,-1.804121,9.055908,0,0,0,0,0,0,0,0,0
1.68009E+18,234,1.68009E+18,imu_of_uwb_link,0,0,0.021814885,0.999762027,0,0,0,0,0,0,0,0,0,0.038625,0.035601,-0.013024,0,0,0,0,0,0,0,0,0,-0.039941,-2.497969,9.594238,0,0,0,0,0,0,0,0,0
1.68009E+18,235,1.68009E+18,imu_of_uwb_link,0,0,0.021814885,0.999762027,0,0,0,0,0,0,0,0,0,0.017345,0.302139,-0.185396,0,0,0,0,0,0,0,0,0,-0.097363,-2.682197,9.381299,0,0,0,0,0,0,0,0,0
1.68009E+18,236,1.68009E+18,imu_of_uwb_link,0,0,0.021814885,0.999762027,0,0,0,0,0,0,0,0,0,-0.142259,-0.104319,-0.312547,0,0,0,0,0,0,0,0,0,-0.611768,-2.720479,9.780859,0,0,0,0,0,0,0,0,0
1.68009E+18,237,1.68009E+18,imu_of_uwb_link,0,0,0.021814885,0.999762027,0,0,0,0,0,0,0,0,0,0.193441,0.119659,0.138599,0,0,0,0,0,0,0,0,0,0.168213,-2.280244,8.936279,0,0,0,0,0,0,0,0,0
1.68009E+18,238,1.68009E+18,imu_of_uwb_link,0,0,0.021814885,0.999762027,0,0,0,0,0,0,0,0,0,-0.005,0.009,0.004,0,0,0,0,0,0,0,0,0,-0.15,0.22,0,0,0,0,0,0,0,0,0,0
1.68009E+18,239,1.68009E+18,imu_of_uwb_link,0,0,0.021814885,0.999762027,0,0,0,0,0,0,0,0,0,-0.005,0.009,0.004,0,0,0,0,0,0,0,0,0,-0.15,0.22,0,0,0,0,0,0,0,0,0,0
