%time,field.header.seq,field.header.stamp,field.header.frame_id,field.orientation.x,field.orientation.y,field.orientation.z,field.orientation.w,field.orientation_covariance0,field.orientation_covariance1,field.orientation_covariance2,field.orientation_covariance3,field.orientation_covariance4,field.orientation_covariance5,field.orientation_covariance6,field.orientation_covariance7,field.orientation_covariance8,field.angular_velocity.x,field.angular_velocity.y,field.angular_velocity.z,field.angular_velocity_covariance0,field.angular_velocity_covariance1,field.angular_velocity_covariance2,field.angular_velocity_covariance3,field.angular_velocity_covariance4,field.angular_velocity_covariance5,field.angular_velocity_covariance6,field.angular_velocity_covariance7,field.angular_velocity_covariance8,field.linear_acceleration.x,field.linear_acceleration.y,field.linear_acceleration.z,field.linear_acceleration_covariance0,field.linear_acceleration_covariance1,field.linear_acceleration_covariance2,field.linear_acceleration_covariance3,field.linear_acceleration_covariance4,field.linear_acceleration_covariance5,field.linear_acceleration_covariance6,field.linear_acceleration_covariance7,field.linear_acceleration_covariance8
1680087667751243064,71,1680087667750519037,imu_of_uwb_link,0.0,0.0,0.0218148850346,0.99976202708,0.0,0.0,0.0,0.0,0.0,0.0,0.0,0.0,0.0,-0.005,0.009,0.004,0.0,0.0,0.0,0.0,0.0,0.0,0.0,0.0,0.0,-0.15,0.22,0.0,0.0,0.0,0.0,0.0,0.0,0.0,0.0,0.0,0.0
1680087668003876397,72,1680087668000416040,imu_of_uwb_link,0.0,0.0,0.0218148850346,0.99976202708,0.0,0.0,0.0,0.0,0.0,0.0,0.0,0.0,0.0,-0.005,0.009,0.004,0.0,0.0,0.0,0.0,0.0,0.0,0.0,0.0,0.0,-0.15,0.22,0.0,0.0,0.0,0.0,0.0,0.0,0.0,0.0,0.0,0.0
1680087668251713272,73,1680087668250936985,imu_of_uwb_link,0.0,0.0,0.0218148850346,0.99976202708,0.0,0.0,0.0,0.0,0.0,0.0,0.0,0.0,0.0,-0.053413,0.051561,0.01996,0.0,0.0,0.0,0.0,0.0,0.0,0.0,0.0,0.0,-0.516064,-0.69875,9.474609,0.0,0.0,0.0,0.0,0.0,0.0,0.0,0.0,0.0
1680087668501305459,74,1680087668500521898,imu_of_uwb_link,0.0,0.0,0.0218148850346,0.99976202708,0.0,0.0,0.0,0.0,0.0,0.0,0.0,0.0,0.0,-0.005,0.009,0.004,0.0,0.0,0.0,0.0,0.0,0.0,0.0,0.0,0.0,-0.15,0.22,0.0,0.0,0.0,0.0,0.0,0.0,0.0,0.0,0.0,0.0
1680087668751011865,75,1680087668750422954,imu_of_uwb_link,0.0,0.0,0.0218148850346,0.99976202708,0.0,0.0,0.0,0.0,0.0,0.0,0.0,0.0,0.0,-0.005,0.009,0.004,0.0,0.0,0.0,0.0,0.0,0.0,0.0,0.0,0.0,-0.15,0.22,0.0,0.0,0.0,0.0,0.0,0.0,0.0,0.0,0.0,0.0
1680087669001609782,76,1680087669000845909,imu_of_uwb_link,0.0,0.0,0.0218148850346,0.99976202708,0.0,0.0,0.0,0.0,0.0,0.0,0.0,0.0,0.0,-0.027877,-0.016005,-0.002384,0.0,0.0,0.0,0.0,0.0,0.0,0.0,0.0,0.0,-0.60459,-0.208271,9.742579,0.0,0.0,0.0,0.0,0.0,0.0,0.0,0.0,0.0
1680087669250978219,77,1680087669250212907,imu_of_uwb_link,0.0,0.0,0.0218148850346,0.99976202708,0.0,0.0,0.0,0.0,0.0,0.0,0.0,0.0,0.0,-0.005,0.009,0.004,0.0,0.0,0.0,0.0,0.0,0.0,0.0,0.0,0.0,-0.15,0.22,0.0,0.0,0.0,0.0,0.0,0.0,0.0,0.0,0.0,0.0
1680087669503451292,78,1680087669501362085,imu_of_uwb_link,0.0,0.0,0.0218148850346,0.99976202708,0.0,0.0,0.0,0.0,0.0,0.0,0.0,0.0,0.0,0.041285,0.013788,0.007724,0.0,0.0,0.0,0.0,0.0,0.0,0.0,0.0,0.0,-0.568701,-0.445137,9.783252,0.0,0.0,0.0,0.0,0.0,0.0,0.0,0.0,0.0
1680087669752254573,79,1680087669751079082,imu_of_uwb_link,0.0,0.0,0.0218148850346,0.99976202708,0.0,0.0,0.0,0.0,0.0,0.0,0.0,0.0,0.0,-0.017236,-0.011748,-0.016748,0.0,0.0,0.0,0.0,0.0,0.0,0.0,0.0,0.0,-0.53042,-0.509736,9.618164,0.0,0.0,0.0,0.0,0.0,0.0,0.0,0.0,0.0
1680087670003728219,80,1680087670001388072,imu_of_uwb_link,0.0,0.0,0.0218148850346,0.99976202708,0.0,0.0,0.0,0.0,0.0,0.0,0.0,0.0,0.0,-0.005,0.009,0.004,0.0,0.0,0.0,0.0,0.0,0.0,0.0,0.0,0.0,-0.15,0.22,0.0,0.0,0.0,0.0,0.0,0.0,0.0,0.0,0.0,0.0
1680087670252828375,81,1680087670251142024,imu_of_uwb_link,0.0,0.0,0.0218148850346,0.99976202708,0.0,0.0,0.0,0.0,0.0,0.0,0.0,0.0,0.0,-0.080014,0.029216,-0.011428,0.0,0.0,0.0,0.0,0.0,0.0,0.0,0.0,0.0,-0.501709,-0.399678,9.599024,0.0,0.0,0.0,0.0,0.0,0.0,0.0,0.0,0.0
1680087670501387490,82,1680087670500889062,imu_of_uwb_link,0.0,0.0,0.0218148850346,0.99976202708,0.0,0.0,0.0,0.0,0.0,0.0,0.0,0.0,0.0,0.030113,0.045177,0.01464,0.0,0.0,0.0,0.0,0.0,0.0,0.0,0.0,0.0,-0.525635,-0.406855,9.57749,0.0,0.0,0.0,0.0,0.0,0.0,0.0,0.0,0.0
1680087670752342177,83,1680087670750629901,imu_of_uwb_link,0.0,0.0,0.0218148850346,0.99976202708,0.0,0.0,0.0,0.0,0.0,0.0,0.0,0.0,0.0,0.046073,-0.009088,-0.017813,0.0,0.0,0.0,0.0,0.0,0.0,0.0,0.0,0.0,-0.477783,-0.473848,9.563135,0.0,0.0,0.0,0.0,0.0,0.0,0.0,0.0,0.0
1680087671001479521,84,1680087671000416040,imu_of_uwb_link,0.0,0.0,0.0218148850346,0.99976202708,0.0,0.0,0.0,0.0,0.0,0.0,0.0,0.0,0.0,0.056181,-0.023985,0.002936,0.0,0.0,0.0,0.0,0.0,0.0,0.0,0.0,0.0,-0.425146,-0.440352,9.730616,0.0,0.0,0.0,0.0,0.0,0.0,0.0,0.0,0.0
1680087671253276552,85,1680087671251243114,imu_of_uwb_link,0.0,0.0,0.0218148850346,0.99976202708,0.0,0.0,0.0,0.0,0.0,0.0,0.0,0.0,0.0,0.055649,0.021236,0.006128,0.0,0.0,0.0,0.0,0.0,0.0,0.0,0.0,0.0,-0.367725,-0.251338,9.890918,0.0,0.0,0.0,0.0,0.0,0.0,0.0,0.0,0.0
1680087671504559000,86,1680087671501955986,imu_of_uwb_link,0.0,0.0,0.0218148850346,0.99976202708,0.0,0.0,0.0,0.0,0.0,0.0,0.0,0.0,0.0,-0.005,0.009,0.004,0.0,0.0,0.0,0.0,0.0,0.0,0.0,0.0,0.0,-0.15,0.22,0.0,0.0,0.0,0.0,0.0,0.0,0.0,0.0,0.0,0.0
1680087671753251604,87,1680087671750817060,imu_of_uwb_link,0.0,0.0,0.0218148850346,0.99976202708,0.0,0.0,0.0,0.0,0.0,0.0,0.0,0.0,0.0,-0.005,0.009,0.004,0.0,0.0,0.0,0.0,0.0,0.0,0.0,0.0,0.0,-0.15,0.22,0.0,0.0,0.0,0.0,0.0,0.0,0.0,0.0,0.0,0.0
1680087672005764520,88,1680087672002134084,imu_of_uwb_link,0.0,0.0,0.0218148850346,0.99976202708,0.0,0.0,0.0,0.0,0.0,0.0,0.0,0.0,0.0,-0.005,0.009,0.004,0.0,0.0,0.0,0.0,0.0,0.0,0.0,0.0,0.0,-0.15,0.22,0.0,0.0,0.0,0.0,0.0,0.0,0.0,0.0,0.0,0.0
1680087672252247645,89,1680087672251183032,imu_of_uwb_link,0.0,0.0,0.0218148850346,0.99976202708,0.0,0.0,0.0,0.0,0.0,0.0,0.0,0.0,0.0,-0.005,0.009,0.004,0.0,0.0,0.0,0.0,0.0,0.0,0.0,0.0,0.0,-0.15,0.22,0.0,0.0,0.0,0.0,0.0,0.0,0.0,0.0,0.0,0.0
1680087672505801291,90,1680087672501184940,imu_of_uwb_link,0.0,0.0,0.0218148850346,0.99976202708,0.0,0.0,0.0,0.0,0.0,0.0,0.0,0.0,0.0,-0.005,0.009,0.004,0.0,0.0,0.0,0.0,0.0,0.0,0.0,0.0,0.0,-0.15,0.22,0.0,0.0,0.0,0.0,0.0,0.0,0.0,0.0,0.0,0.0
1680087672753257541,91,1680087672751162052,imu_of_uwb_link,0.0,0.0,0.0218148850346,0.99976202708,0.0,0.0,0.0,0.0,0.0,0.0,0.0,0.0,0.0,-0.005,0.009,0.004,0.0,0.0,0.0,0.0,0.0,0.0,0.0,0.0,0.0,-0.15,0.22,0.0,0.0,0.0,0.0,0.0,0.0,0.0,0.0,0.0,0.0
1680087673002210197,92,1680087673001035928,imu_of_uwb_link,0.0,0.0,0.0218148850346,0.99976202708,0.0,0.0,0.0,0.0,0.0,0.0,0.0,0.0,0.0,-0.005,0.009,0.004,0.0,0.0,0.0,0.0,0.0,0.0,0.0,0.0,0.0,-0.15,0.22,0.0,0.0,0.0,0.0,0.0,0.0,0.0,0.0,0.0,0.0
1680087673251214259,93,1680087673250361919,imu_of_uwb_link,0.0,0.0,0.0218148850346,0.99976202708,0.0,0.0,0.0,0.0,0.0,0.0,0.0,0.0,0.0,0.005108,-0.07559,0.009852,0.0,0.0,0.0,0.0,0.0,0.0,0.0,0.0,0.0,-0.374902,-0.3925,9.426758,0.0,0.0,0.0,0.0,0.0,0.0,0.0,0.0,0.0
1680087673503489103,94,1680087673501020908,imu_of_uwb_link,0.0,0.0,0.0218148850346,0.99976202708,0.0,0.0,0.0,0.0,0.0,0.0,0.0,0.0,0.0,0.035433,0.004744,-0.030049,0.0,0.0,0.0,0.0,0.0,0.0,0.0,0.0,0.0,-0.403613,-0.347041,9.694727,0.0,0.0,0.0,0.0,0.0,0.0,0.0,0.0,0.0
1680087673754029468,95,1680087673750660896,imu_of_uwb_link,0.0,0.0,0.0218148850346,0.99976202708,0.0,0.0,0.0,0.0,0.0,0.0,0.0,0.0,0.0,-0.005,0.009,0.004,0.0,0.0,0.0,0.0,0.0,0.0,0.0,0.0,0.0,-0.15,0.22,0.0,0.0,0.0,0.0,0.0,0.0,0.0,0.0,0.0,0.0
1680087674004665665,96,1680087674001312971,imu_of_uwb_link,0.0,0.0,0.0218148850346,0.99976202708,0.0,0.0,0.0,0.0,0.0,0.0,0.0,0.0,0.0,-0.005,0.009,0.004,0.0,0.0,0.0,0.0,0.0,0.0,0.0,0.0,0.0,-0.15,0.22,0.0,0.0,0.0,0.0,0.0,0.0,0.0,0.0,0.0,0.0
1680087674253591603,97,1680087674251503944,imu_of_uwb_link,0.0,0.0,0.0218148850346,0.99976202708,0.0,0.0,0.0,0.0,0.0,0.0,0.0,0.0,0.0,-0.005,0.009,0.004,0.0,0.0,0.0,0.0,0.0,0.0,0.0,0.0,0.0,-0.15,0.22,0.0,0.0,0.0,0.0,0.0,0.0,0.0,0.0,0.0,0.0
1680087674502336186,98,1680087674501812934,imu_of_uwb_link,0.0,0.0,0.0218148850346,0.99976202708,0.0,0.0,0.0,0.0,0.0,0.0,0.0,0.0,0.0,-0.005,0.009,0.004,0.0,0.0,0.0,0.0,0.0,0.0,0.0,0.0,0.0,-0.15,0.22,0.0,0.0,0.0,0.0,0.0,0.0,0.0,0.0,0.0,0.0
1680087674752843009,99,1680087674751539945,imu_of_uwb_link,0.0,0.0,0.0218148850346,0.99976202708,0.0,0.0,0.0,0.0,0.0,0.0,0.0,0.0,0.0,-0.005,0.009,0.004,0.0,0.0,0.0,0.0,0.0,0.0,0.0,0.0,0.0,-0.15,0.22,0.0,0.0,0.0,0.0,0.0,0.0,0.0,0.0,0.0,0.0
1680087675001847592,100,1680087675001019001,imu_of_uwb_link,0.0,0.0,0.0218148850346,0.99976202708,0.0,0.0,0.0,0.0,0.0,0.0,0.0,0.0,0.0,-0.005,0.009,0.004,0.0,0.0,0.0,0.0,0.0,0.0,0.0,0.0,0.0,-0.15,0.22,0.0,0.0,0.0,0.0,0.0,0.0,0.0,0.0,0.0,0.0
1680087675254198113,101,1680087675250802993,imu_of_uwb_link,0.0,0.0,0.0218148850346,0.99976202708,0.0,0.0,0.0,0.0,0.0,0.0,0.0,0.0,0.0,-0.005,0.009,0.004,0.0,0.0,0.0,0.0,0.0,0.0,0.0,0.0,0.0,-0.15,0.22,0.0,0.0,0.0,0.0,0.0,0.0,0.0,0.0,0.0,0.0
1680087675503110873,102,1680087675501097917,imu_of_uwb_link,0.0,0.0,0.0218148850346,0.99976202708,0.0,0.0,0.0,0.0,0.0,0.0,0.0,0.0,0.0,-0.005,0.009,0.004,0.0,0.0,0.0,0.0,0.0,0.0,0.0,0.0,0.0,-0.15,0.22,0.0,0.0,0.0,0.0,0.0,0.0,0.0,0.0,0.0,0.0
1680087675751358842,103,1680087675750435113,imu_of_uwb_link,0.0,0.0,0.0218148850346,0.99976202708,0.0,0.0,0.0,0.0,0.0,0.0,0.0,0.0,0.0,-0.005,0.009,0.004,0.0,0.0,0.0,0.0,0.0,0.0,0.0,0.0,0.0,-0.15,0.22,0.0,0.0,0.0,0.0,0.0,0.0,0.0,0.0,0.0,0.0
1680087676002369415,104,1680087676000785112,imu_of_uwb_link,0.0,0.0,0.0218148850346,0.99976202708,0.0,0.0,0.0,0.0,0.0,0.0,0.0,0.0,0.0,-0.005,0.009,0.004,0.0,0.0,0.0,0.0,0.0,0.0,0.0,0.0,0.0,-0.15,0.22,0.0,0.0,0.0,0.0,0.0,0.0,0.0,0.0,0.0,0.0
1680087676253512956,105,1680087676250562906,imu_of_uwb_link,0.0,0.0,0.0218148850346,0.99976202708,0.0,0.0,0.0,0.0,0.0,0.0,0.0,0.0,0.0,0.093954,-0.07027,0.039645,0.0,0.0,0.0,0.0,0.0,0.0,0.0,0.0,0.0,-0.260059,-0.217842,9.610987,0.0,0.0,0.0,0.0,0.0,0.0,0.0,0.0,0.0
1680087676504185404,106,1680087676500840902,imu_of_uwb_link,0.0,0.0,0.0218148850346,0.99976202708,0.0,0.0,0.0,0.0,0.0,0.0,0.0,0.0,0.0,-0.005,0.009,0.004,0.0,0.0,0.0,0.0,0.0,0.0,0.0,0.0,0.0,-0.15,0.22,0.0,0.0,0.0,0.0,0.0,0.0,0.0,0.0,0.0,0.0
1680087676751521446,107,1680087676750718116,imu_of_uwb_link,0.0,0.0,0.0218148850346,0.99976202708,0.0,0.0,0.0,0.0,0.0,0.0,0.0,0.0,0.0,0.036497,-0.019197,0.007724,0.0,0.0,0.0,0.0,0.0,0.0,0.0,0.0,0.0,-0.30791,-0.047969,9.675586,0.0,0.0,0.0,0.0,0.0,0.0,0.0,0.0,0.0
1680087677002514623,108,1680087677000585079,imu_of_uwb_link,0.0,0.0,0.0218148850346,0.99976202708,0.0,0.0,0.0,0.0,0.0,0.0,0.0,0.0,0.0,-0.005,0.009,0.004,0.0,0.0,0.0,0.0,0.0,0.0,0.0,0.0,0.0,-0.15,0.22,0.0,0.0,0.0,0.0,0.0,0.0,0.0,0.0,0.0,0.0
1680087677252125925,109,1680087677250802993,imu_of_uwb_link,0.0,0.0,0.0218148850346,0.99976202708,0.0,0.0,0.0,0.0,0.0,0.0,0.0,0.0,0.0,0.108851,-0.005896,0.008256,0.0,0.0,0.0,0.0,0.0,0.0,0.0,0.0,0.0,-0.386865,-0.105391,9.634912,0.0,0.0,0.0,0.0,0.0,0.0,0.0,0.0,0.0
1680087677505151602,110,1680087677501662015,imu_of_uwb_link,0.0,0.0,0.0218148850346,0.99976202708,0.0,0.0,0.0,0.0,0.0,0.0,0.0,0.0,0.0,-0.005,0.009,0.004,0.0,0.0,0.0,0.0,0.0,0.0,0.0,0.0,0.0,-0.15,0.22,0.0,0.0,0.0,0.0,0.0,0.0,0.0,0.0,0.0,0.0
1680087677752434883,111,1680087677750689983,imu_of_uwb_link,0.0,0.0,0.0218148850346,0.99976202708,0.0,0.0,0.0,0.0,0.0,0.0,0.0,0.0,0.0,0.023197,0.01964,0.032197,0.0,0.0,0.0,0.0,0.0,0.0,0.0,0.0,0.0,-0.343799,0.157793,9.654053,0.0,0.0,0.0,0.0,0.0,0.0,0.0,0.0,0.0
1680087678003588060,112,1680087678001095056,imu_of_uwb_link,0.0,0.0,0.0218148850346,0.99976202708,0.0,0.0,0.0,0.0,0.0,0.0,0.0,0.0,0.0,-0.005,0.009,0.004,0.0,0.0,0.0,0.0,0.0,0.0,0.0,0.0,0.0,-0.15,0.22,0.0,0.0,0.0,0.0,0.0,0.0,0.0,0.0,0.0,0.0
1680087678252542487,113,1680087678251677036,imu_of_uwb_link,0.0,0.0,0.0218148850346,0.99976202708,0.0,0.0,0.0,0.0,0.0,0.0,0.0,0.0,0.0,-0.005,0.009,0.004,0.0,0.0,0.0,0.0,0.0,0.0,0.0,0.0,0.0,-0.15,0.22,0.0,0.0,0.0,0.0,0.0,0.0,0.0,0.0,0.0,0.0
1680087678501752330,114,1680087678500881910,imu_of_uwb_link,0.0,0.0,0.0218148850346,0.99976202708,0.0,0.0,0.0,0.0,0.0,0.0,0.0,0.0,0.0,-0.051817,0.019108,0.013576,0.0,0.0,0.0,0.0,0.0,0.0,0.0,0.0,0.0,-0.39165,0.13626,9.749756,0.0,0.0,0.0,0.0,0.0,0.0,0.0,0.0,0.0
1680087678751190507,115,1680087678750729084,imu_of_uwb_link,0.0,0.0,0.0218148850346,0.99976202708,0.0,0.0,0.0,0.0,0.0,0.0,0.0,0.0,0.0,-0.005,0.009,0.004,0.0,0.0,0.0,0.0,0.0,0.0,0.0,0.0,0.0,-0.15,0.22,0.0,0.0,0.0,0.0,0.0,0.0,0.0,0.0,0.0,0.0
1680087679002865455,116,1680087679001074075,imu_of_uwb_link,0.0,0.0,0.0218148850346,0.99976202708,0.0,0.0,0.0,0.0,0.0,0.0,0.0,0.0,0.0,-0.005,0.009,0.004,0.0,0.0,0.0,0.0,0.0,0.0,0.0,0.0,0.0,-0.15,0.22,0.0,0.0,0.0,0.0,0.0,0.0,0.0,0.0,0.0,0.0
1680087679251112903,117,1680087679250528097,imu_of_uwb_link,0.0,0.0,0.0218148850346,0.99976202708,0.0,0.0,0.0,0.0,0.0,0.0,0.0,0.0,0.0,-0.027345,0.048369,-0.035369,0.0,0.0,0.0,0.0,0.0,0.0,0.0,0.0,0.0,-0.444287,0.105156,9.70669,0.0,0.0,0.0,0.0,0.0,0.0,0.0,0.0,0.0
1680087679503457070,118,1680087679501450061,imu_of_uwb_link,0.0,0.0,0.0218148850346,0.99976202708,0.0,0.0,0.0,0.0,0.0,0.0,0.0,0.0,0.0,-0.0183,-0.005364,-0.014088,0.0,0.0,0.0,0.0,0.0,0.0,0.0,0.0,0.0,-0.482568,0.263066,9.56792,0.0,0.0,0.0,0.0,0.0,0.0,0.0,0.0,0.0
1680087679751228736,119,1680087679750472068,imu_of_uwb_link,0.0,0.0,0.0218148850346,0.99976202708,0.0,0.0,0.0,0.0,0.0,0.0,0.0,0.0,0.0,0.001916,-0.01228,0.01996,0.0,0.0,0.0,0.0,0.0,0.0,0.0,0.0,0.0,-0.444287,0.038164,9.699512,0.0,0.0,0.0,0.0,0.0,0.0,0.0,0.0,0.0
1680087680004054049,120,1680087680000709056,imu_of_uwb_link,0.0,0.0,0.0218148850346,0.99976202708,0.0,0.0,0.0,0.0,0.0,0.0,0.0,0.0,0.0,-0.005,0.009,0.004,0.0,0.0,0.0,0.0,0.0,0.0,0.0,0.0,0.0,-0.15,0.22,0.0,0.0,0.0,0.0,0.0,0.0,0.0,0.0,0.0,0.0
1680087680255520194,121,1680087680251019954,imu_of_uwb_link,0.0,0.0,0.0218148850346,0.99976202708,0.0,0.0,0.0,0.0,0.0,0.0,0.0,0.0,0.0,-0.005,0.009,0.004,0.0,0.0,0.0,0.0,0.0,0.0,0.0,0.0,0.0,-0.15,0.22,0.0,0.0,0.0,0.0,0.0,0.0,0.0,0.0,0.0,0.0
1680087680503618632,122,1680087680501085042,imu_of_uwb_link,0.0,0.0,0.0218148850346,0.99976202708,0.0,0.0,0.0,0.0,0.0,0.0,0.0,0.0,0.0,0.000852,-0.030369,-0.001852,0.0,0.0,0.0,0.0,0.0,0.0,0.0,0.0,0.0,-0.427539,-0.110176,9.704297,0.0,0.0,0.0,0.0,0.0,0.0,0.0,0.0,0.0
1680087680752339673,123,1680087680751214027,imu_of_uwb_link,0.0,0.0,0.0218148850346,0.99976202708,0.0,0.0,0.0,0.0,0.0,0.0,0.0,0.0,0.0,-0.005,0.009,0.004,0.0,0.0,0.0,0.0,0.0,0.0,0.0,0.0,0.0,-0.15,0.22,0.0,0.0,0.0,0.0,0.0,0.0,0.0,0.0,0.0,0.0
1680087681003481079,124,1680087681001022100,imu_of_uwb_link,0.0,0.0,0.0218148850346,0.99976202708,0.0,0.0,0.0,0.0,0.0,0.0,0.0,0.0,0.0,0.032773,-0.018665,-0.022069,0.0,0.0,0.0,0.0,0.0,0.0,0.0,0.0,0.0,-0.439502,0.157793,9.563135,0.0,0.0,0.0,0.0,0.0,0.0,0.0,0.0,0.0
1680087681251845767,125,1680087681251188993,imu_of_uwb_link,0.0,0.0,0.0218148850346,0.99976202708,0.0,0.0,0.0,0.0,0.0,0.0,0.0,0.0,0.0,-0.005,0.009,0.004,0.0,0.0,0.0,0.0,0.0,0.0,0.0,0.0,0.0,-0.15,0.22,0.0,0.0,0.0,0.0,0.0,0.0,0.0,0.0,0.0,0.0
1680087681502179933,126,1680087681500736951,imu_of_uwb_link,0.0,0.0,0.0218148850346,0.99976202708,0.0,0.0,0.0,0.0,0.0,0.0,0.0,0.0,0.0,-0.005,0.062201,-0.01462,0.0,0.0,0.0,0.0,0.0,0.0,0.0,0.0,0.0,-0.44668,0.08123,9.553564,0.0,0.0,0.0,0.0,0.0,0.0,0.0,0.0,0.0
1680087681756106183,127,1680087681750814914,imu_of_uwb_link,0.0,0.0,0.0218148850346,0.99976202708,0.0,0.0,0.0,0.0,0.0,0.0,0.0,0.0,0.0,-0.005,0.009,0.004,0.0,0.0,0.0,0.0,0.0,0.0,0.0,0.0,0.0,-0.15,0.22,0.0,0.0,0.0,0.0,0.0,0.0,0.0,0.0,0.0,0.0
1680087682003969464,128,1680087682001127004,imu_of_uwb_link,0.0,0.0,0.0218148850346,0.99976202708,0.0,0.0,0.0,0.0,0.0,0.0,0.0,0.0,0.0,-0.005,0.009,0.004,0.0,0.0,0.0,0.0,0.0,0.0,0.0,0.0,0.0,-0.15,0.22,0.0,0.0,0.0,0.0,0.0,0.0,0.0,0.0,0.0,0.0
1680087682253860558,129,1680087682250572919,imu_of_uwb_link,0.0,0.0,0.0218148850346,0.99976202708,0.0,0.0,0.0,0.0,0.0,0.0,0.0,0.0,0.0,0.014152,-0.015473,0.015172,0.0,0.0,0.0,0.0,0.0,0.0,0.0,0.0,0.0,-0.451465,0.131475,9.694727,0.0,0.0,0.0,0.0,0.0,0.0,0.0,0.0,0.0
1680087682501639412,130,1680087682500463962,imu_of_uwb_link,0.0,0.0,0.0218148850346,0.99976202708,0.0,0.0,0.0,0.0,0.0,0.0,0.0,0.0,0.0,-0.005,0.009,0.004,0.0,0.0,0.0,0.0,0.0,0.0,0.0,0.0,0.0,-0.15,0.22,0.0,0.0,0.0,0.0,0.0,0.0,0.0,0.0,0.0,0.0
1680087682752050298,131,1680087682750880956,imu_of_uwb_link,0.0,0.0,0.0218148850346,0.99976202708,0.0,0.0,0.0,0.0,0.0,0.0,0.0,0.0,0.0,-0.005,0.009,0.004,0.0,0.0,0.0,0.0,0.0,0.0,0.0,0.0,0.0,-0.15,0.22,0.0,0.0,0.0,0.0,0.0,0.0,0.0,0.0,0.0,0.0
1680087683005380922,132,1680087683000844955,imu_of_uwb_link,0.0,0.0,0.0218148850346,0.99976202708,0.0,0.0,0.0,0.0,0.0,0.0,0.0,0.0,0.0,-0.005,0.009,0.004,0.0,0.0,0.0,0.0,0.0,0.0,0.0,0.0,0.0,-0.15,0.22,0.0,0.0,0.0,0.0,0.0,0.0,0.0,0.0,0.0,0.0
1680087683251963006,133,1680087683250569105,imu_of_uwb_link,0.0,0.0,0.0218148850346,0.99976202708,0.0,0.0,0.0,0.0,0.0,0.0,0.0,0.0,0.0,-0.005,0.009,0.004,0.0,0.0,0.0,0.0,0.0,0.0,0.0,0.0,0.0,-0.15,0.22,0.0,0.0,0.0,0.0,0.0,0.0,0.0,0.0,0.0,0.0
1680087683502523318,134,1680087683501271009,imu_of_uwb_link,0.0,0.0,0.0218148850346,0.99976202708,0.0,0.0,0.0,0.0,0.0,0.0,0.0,0.0,0.0,-0.005,0.009,0.004,0.0,0.0,0.0,0.0,0.0,0.0,0.0,0.0,0.0,-0.15,0.22,0.0,0.0,0.0,0.0,0.0,0.0,0.0,0.0,0.0,0.0
1680087683753095141,135,1680087683750705957,imu_of_uwb_link,0.0,0.0,0.0218148850346,0.99976202708,0.0,0.0,0.0,0.0,0.0,0.0,0.0,0.0,0.0,-0.005,0.009,0.004,0.0,0.0,0.0,0.0,0.0,0.0,0.0,0.0,0.0,-0.15,0.22,0.0,0.0,0.0,0.0,0.0,0.0,0.0,0.0,0.0,0.0
1680087684001966078,136,1680087684000895023,imu_of_uwb_link,0.0,0.0,0.0218148850346,0.99976202708,0.0,0.0,0.0,0.0,0.0,0.0,0.0,0.0,0.0,-0.005,0.009,0.004,0.0,0.0,0.0,0.0,0.0,0.0,0.0,0.0,0.0,-0.15,0.22,0.0,0.0,0.0,0.0,0.0,0.0,0.0,0.0,0.0,0.0
1680087684255003734,137,1680087684250477075,imu_of_uwb_link,0.0,0.0,0.0218148850346,0.99976202708,0.0,0.0,0.0,0.0,0.0,0.0,0.0,0.0,0.0,-0.005,0.009,0.004,0.0,0.0,0.0,0.0,0.0,0.0,0.0,0.0,0.0,-0.15,0.22,0.0,0.0,0.0,0.0,0.0,0.0,0.0,0.0,0.0,0.0
1680087684502028578,138,1680087684500385046,imu_of_uwb_link,0.0,0.0,0.0218148850346,0.99976202708,0.0,0.0,0.0,0.0,0.0,0.0,0.0,0.0,0.0,-0.005,0.009,0.004,0.0,0.0,0.0,0.0,0.0,0.0,0.0,0.0,0.0,-0.15,0.22,0.0,0.0,0.0,0.0,0.0,0.0,0.0,0.0,0.0,0.0
1680087684752060036,139,1680087684750895023,imu_of_uwb_link,0.0,0.0,0.0218148850346,0.99976202708,0.0,0.0,0.0,0.0,0.0,0.0,0.0,0.0,0.0,-0.005,0.009,0.004,0.0,0.0,0.0,0.0,0.0,0.0,0.0,0.0,0.0,-0.15,0.22,0.0,0.0,0.0,0.0,0.0,0.0,0.0,0.0,0.0,0.0
1680087685006159880,140,1680087685001207113,imu_of_uwb_link,0.0,0.0,0.0218148850346,0.99976202708,0.0,0.0,0.0,0.0,0.0,0.0,0.0,0.0,0.0,-0.005,0.009,0.004,0.0,0.0,0.0,0.0,0.0,0.0,0.0,0.0,0.0,-0.15,0.22,0.0,0.0,0.0,0.0,0.0,0.0,0.0,0.0,0.0,0.0
1680087685252368578,141,1680087685250334024,imu_of_uwb_link,0.0,0.0,0.0218148850346,0.99976202708,0.0,0.0,0.0,0.0,0.0,0.0,0.0,0.0,0.0,-0.005,0.009,0.004,0.0,0.0,0.0,0.0,0.0,0.0,0.0,0.0,0.0,-0.15,0.22,0.0,0.0,0.0,0.0,0.0,0.0,0.0,0.0,0.0,0.0
1680087685505556651,142,1680087685500683069,imu_of_uwb_link,0.0,0.0,0.0218148850346,0.99976202708,0.0,0.0,0.0,0.0,0.0,0.0,0.0,0.0,0.0,-0.005,0.009,0.004,0.0,0.0,0.0,0.0,0.0,0.0,0.0,0.0,0.0,-0.15,0.22,0.0,0.0,0.0,0.0,0.0,0.0,0.0,0.0,0.0,0.0
1680087685759490609,143,1680087685751832008,imu_of_uwb_link,0.0,0.0,0.0218148850346,0.99976202708,0.0,0.0,0.0,0.0,0.0,0.0,0.0,0.0,0.0,-0.005,0.009,0.004,0.0,0.0,0.0,0.0,0.0,0.0,0.0,0.0,0.0,-0.15,0.22,0.0,0.0,0.0,0.0,0.0,0.0,0.0,0.0,0.0,0.0
1680087686002407432,144,1680087686000638008,imu_of_uwb_link,0.0,0.0,0.0218148850346,0.99976202708,0.0,0.0,0.0,0.0,0.0,0.0,0.0,0.0,0.0,-0.005,0.009,0.004,0.0,0.0,0.0,0.0,0.0,0.0,0.0,0.0,0.0,-0.15,0.22,0.0,0.0,0.0,0.0,0.0,0.0,0.0,0.0,0.0,0.0
1680087686253692640,145,1680087686250643014,imu_of_uwb_link,0.0,0.0,0.0218148850346,0.99976202708,0.0,0.0,0.0,0.0,0.0,0.0,0.0,0.0,0.0,-0.005,0.009,0.004,0.0,0.0,0.0,0.0,0.0,0.0,0.0,0.0,0.0,-0.15,0.22,0.0,0.0,0.0,0.0,0.0,0.0,0.0,0.0,0.0,0.0
1680087686503545296,146,1680087686500811100,imu_of_uwb_link,0.0,0.0,0.0218148850346,0.99976202708,0.0,0.0,0.0,0.0,0.0,0.0,0.0,0.0,0.0,-0.005,0.009,0.004,0.0,0.0,0.0,0.0,0.0,0.0,0.0,0.0,0.0,-0.15,0.22,0.0,0.0,0.0,0.0,0.0,0.0,0.0,0.0,0.0,0.0
1680087686752098733,147,1680087686750989913,imu_of_uwb_link,0.0,0.0,0.0218148850346,0.99976202708,0.0,0.0,0.0,0.0,0.0,0.0,0.0,0.0,0.0,-0.005,0.009,0.004,0.0,0.0,0.0,0.0,0.0,0.0,0.0,0.0,0.0,-0.15,0.22,0.0,0.0,0.0,0.0,0.0,0.0,0.0,0.0,0.0,0.0
1680087687008541598,148,1680087687001069068,imu_of_uwb_link,0.0,0.0,0.0218148850346,0.99976202708,0.0,0.0,0.0,0.0,0.0,0.0,0.0,0.0,0.0,-0.005,0.009,0.004,0.0,0.0,0.0,0.0,0.0,0.0,0.0,0.0,0.0,-0.15,0.22,0.0,0.0,0.0,0.0,0.0,0.0,0.0,0.0,0.0,0.0
1680087687251468629,149,1680087687250710010,imu_of_uwb_link,0.0,0.0,0.0218148850346,0.99976202708,0.0,0.0,0.0,0.0,0.0,0.0,0.0,0.0,0.0,-0.005,0.009,0.004,0.0,0.0,0.0,0.0,0.0,0.0,0.0,0.0,0.0,-0.15,0.22,0.0,0.0,0.0,0.0,0.0,0.0,0.0,0.0,0.0,0.0
1680087687504707692,150,1680087687501140117,imu_of_uwb_link,0.0,0.0,0.0218148850346,0.99976202708,0.0,0.0,0.0,0.0,0.0,0.0,0.0,0.0,0.0,-0.005,0.009,0.004,0.0,0.0,0.0,0.0,0.0,0.0,0.0,0.0,0.0,-0.15,0.22,0.0,0.0,0.0,0.0,0.0,0.0,0.0,0.0,0.0,0.0
1680087687753464306,151,1680087687750384092,imu_of_uwb_link,0.0,0.0,0.0218148850346,0.99976202708,0.0,0.0,0.0,0.0,0.0,0.0,0.0,0.0,0.0,-0.005,0.009,0.004,0.0,0.0,0.0,0.0,0.0,0.0,0.0,0.0,0.0,-0.15,0.22,0.0,0.0,0.0,0.0,0.0,0.0,0.0,0.0,0.0,0.0
1680087688003191650,152,1680087688001064062,imu_of_uwb_link,0.0,0.0,0.0218148850346,0.99976202708,0.0,0.0,0.0,0.0,0.0,0.0,0.0,0.0,0.0,-0.005,0.009,0.004,0.0,0.0,0.0,0.0,0.0,0.0,0.0,0.0,0.0,-0.15,0.22,0.0,0.0,0.0,0.0,0.0,0.0,0.0,0.0,0.0,0.0
1680087688252051025,153,1680087688251066923,imu_of_uwb_link,0.0,0.0,0.0218148850346,0.99976202708,0.0,0.0,0.0,0.0,0.0,0.0,0.0,0.0,0.0,-0.036921,0.01166,0.00932,0.0,0.0,0.0,0.0,0.0,0.0,0.0,0.0,0.0,-0.439502,0.090801,9.675586,0.0,0.0,0.0,0.0,0.0,0.0,0.0,0.0,0.0
1680087688503721181,154,1680087688500312089,imu_of_uwb_link,0.0,0.0,0.0218148850346,0.99976202708,0.0,0.0,0.0,0.0,0.0,0.0,0.0,0.0,0.0,-0.005,0.009,0.004,0.0,0.0,0.0,0.0,0.0,0.0,0.0,0.0,0.0,-0.15,0.22,0.0,0.0,0.0,0.0,0.0,0.0,0.0,0.0,0.0,0.0
1680087688753363524,155,1680087688750570058,imu_of_uwb_link,0.0,0.0,0.0218148850346,0.99976202708,0.0,0.0,0.0,0.0,0.0,0.0,0.0,0.0,0.0,-0.005,0.009,0.004,0.0,0.0,0.0,0.0,0.0,0.0,0.0,0.0,0.0,-0.15,0.22,0.0,0.0,0.0,0.0,0.0,0.0,0.0,0.0,0.0,0.0
1680087689004531441,156,1680087689001831054,imu_of_uwb_link,0.0,0.0,0.0218148850346,0.99976202708,0.0,0.0,0.0,0.0,0.0,0.0,0.0,0.0,0.0,-0.005,0.009,0.004,0.0,0.0,0.0,0.0,0.0,0.0,0.0,0.0,0.0,-0.15,0.22,0.0,0.0,0.0,0.0,0.0,0.0,0.0,0.0,0.0,0.0
1680087689251426753,157,1680087689250477075,imu_of_uwb_link,0.0,0.0,0.0218148850346,0.99976202708,0.0,0.0,0.0,0.0,0.0,0.0,0.0,0.0,0.0,-0.005,0.009,0.004,0.0,0.0,0.0,0.0,0.0,0.0,0.0,0.0,0.0,-0.15,0.22,0.0,0.0,0.0,0.0,0.0,0.0,0.0,0.0,0.0,0.0
1680087689502912118,158,1680087689501072883,imu_of_uwb_link,0.0,0.0,0.0218148850346,0.99976202708,0.0,0.0,0.0,0.0,0.0,0.0,0.0,0.0,0.0,-0.005,0.009,0.004,0.0,0.0,0.0,0.0,0.0,0.0,0.0,0.0,0.0,-0.15,0.22,0.0,0.0,0.0,0.0,0.0,0.0,0.0,0.0,0.0,0.0
1680087689754849774,159,1680087689751748085,imu_of_uwb_link,0.0,0.0,0.0218148850346,0.99976202708,0.0,0.0,0.0,0.0,0.0,0.0,0.0,0.0,0.0,-0.005,0.009,0.004,0.0,0.0,0.0,0.0,0.0,0.0,0.0,0.0,0.0,-0.15,0.22,0.0,0.0,0.0,0.0,0.0,0.0,0.0,0.0,0.0,0.0
1680087690003455191,160,1680087690001111030,imu_of_uwb_link,0.0,0.0,0.0218148850346,0.99976202708,0.0,0.0,0.0,0.0,0.0,0.0,0.0,0.0,0.0,-0.005,0.009,0.004,0.0,0.0,0.0,0.0,0.0,0.0,0.0,0.0,0.0,-0.15,0.22,0.0,0.0,0.0,0.0,0.0,0.0,0.0,0.0,0.0,0.0
1680087690254468055,161,1680087690251095056,imu_of_uwb_link,0.0,0.0,0.0218148850346,0.99976202708,0.0,0.0,0.0,0.0,0.0,0.0,0.0,0.0,0.0,0.015216,0.008468,-0.015152,0.0,0.0,0.0,0.0,0.0,0.0,0.0,0.0,0.0,-0.331836,-0.02165,9.589453,0.0,0.0,0.0,0.0,0.0,0.0,0.0,0.0,0.0
1680087690503624617,162,1680087690500478029,imu_of_uwb_link,0.0,0.0,0.0218148850346,0.99976202708,0.0,0.0,0.0,0.0,0.0,0.0,0.0,0.0,0.0,-0.005,0.009,0.004,0.0,0.0,0.0,0.0,0.0,0.0,0.0,0.0,0.0,-0.15,0.22,0.0,0.0,0.0,0.0,0.0,0.0,0.0,0.0,0.0,0.0
1680087690753175190,163,1680087690751199007,imu_of_uwb_link,0.0,0.0,0.0218148850346,0.99976202708,0.0,0.0,0.0,0.0,0.0,0.0,0.0,0.0,0.0,-0.005,0.009,0.004,0.0,0.0,0.0,0.0,0.0,0.0,0.0,0.0,0.0,-0.15,0.22,0.0,0.0,0.0,0.0,0.0,0.0,0.0,0.0,0.0,0.0
1680087691003352117,164,1680087691001795053,imu_of_uwb_link,0.0,0.0,0.0218148850346,0.99976202708,0.0,0.0,0.0,0.0,0.0,0.0,0.0,0.0,0.0,-0.005,0.009,0.004,0.0,0.0,0.0,0.0,0.0,0.0,0.0,0.0,0.0,-0.15,0.22,0.0,0.0,0.0,0.0,0.0,0.0,0.0,0.0,0.0,0.0
1680087691253531492,165,1680087691251234054,imu_of_uwb_link,0.0,0.0,0.0218148850346,0.99976202708,0.0,0.0,0.0,0.0,0.0,0.0,0.0,0.0,0.0,-0.005,0.009,0.004,0.0,0.0,0.0,0.0,0.0,0.0,0.0,0.0,0.0,-0.15,0.22,0.0,0.0,0.0,0.0,0.0,0.0,0.0,0.0,0.0,0.0
1680087691506082221,166,1680087691501111030,imu_of_uwb_link,0.0,0.0,0.0218148850346,0.99976202708,0.0,0.0,0.0,0.0,0.0,0.0,0.0,0.0,0.0,-0.005,0.009,0.004,0.0,0.0,0.0,0.0,0.0,0.0,0.0,0.0,0.0,-0.15,0.22,0.0,0.0,0.0,0.0,0.0,0.0,0.0,0.0,0.0,0.0
1680087691752017898,167,1680087691750992059,imu_of_uwb_link,0.0,0.0,0.0218148850346,0.99976202708,0.0,0.0,0.0,0.0,0.0,0.0,0.0,0.0,0.0,0.012556,0.00368,0.007192,0.0,0.0,0.0,0.0,0.0,0.0,0.0,0.0,0.0,-0.494531,-0.016865,9.637304,0.0,0.0,0.0,0.0,0.0,0.0,0.0,0.0,0.0
1680087692003774356,168,1680087692000577926,imu_of_uwb_link,0.0,0.0,0.0218148850346,0.99976202708,0.0,0.0,0.0,0.0,0.0,0.0,0.0,0.0,0.0,-0.005,0.009,0.004,0.0,0.0,0.0,0.0,0.0,0.0,0.0,0.0,0.0,-0.15,0.22,0.0,0.0,0.0,0.0,0.0,0.0,0.0,0.0,0.0,0.0
1680087692254342533,169,1680087692251071929,imu_of_uwb_link,0.0,0.0,0.0218148850346,0.99976202708,0.0,0.0,0.0,0.0,0.0,0.0,0.0,0.0,0.0,-0.005,0.009,0.004,0.0,0.0,0.0,0.0,0.0,0.0,0.0,0.0,0.0,-0.15,0.22,0.0,0.0,0.0,0.0,0.0,0.0,0.0,0.0,0.0,0.0
1680087692501461335,170,1680087692500622034,imu_of_uwb_link,0.0,0.0,0.0218148850346,0.99976202708,0.0,0.0,0.0,0.0,0.0,0.0,0.0,0.0,0.0,0.001384,-0.037817,0.016768,0.0,0.0,0.0,0.0,0.0,0.0,0.0,0.0,0.0,-0.413184,-0.055146,9.783252,0.0,0.0,0.0,0.0,0.0,0.0,0.0,0.0,0.0
1680087692752747065,171,1680087692751236915,imu_of_uwb_link,0.0,0.0,0.0218148850346,0.99976202708,0.0,0.0,0.0,0.0,0.0,0.0,0.0,0.0,0.0,-0.005,0.009,0.004,0.0,0.0,0.0,0.0,0.0,0.0,0.0,0.0,0.0,-0.15,0.22,0.0,0.0,0.0,0.0,0.0,0.0,0.0,0.0,0.0,0.0
1680087693005649929,172,1680087693001126050,imu_of_uwb_link,0.0,0.0,0.0218148850346,0.99976202708,0.0,0.0,0.0,0.0,0.0,0.0,0.0,0.0,0.0,-0.005,0.009,0.004,0.0,0.0,0.0,0.0,0.0,0.0,0.0,0.0,0.0,-0.15,0.22,0.0,0.0,0.0,0.0,0.0,0.0,0.0,0.0,0.0,0.0
1680087693251605346,173,1680087693250713109,imu_of_uwb_link,0.0,0.0,0.0218148850346,0.99976202708,0.0,0.0,0.0,0.0,0.0,0.0,0.0,0.0,0.0,-0.005,0.009,0.004,0.0,0.0,0.0,0.0,0.0,0.0,0.0,0.0,0.0,-0.15,0.22,0.0,0.0,0.0,0.0,0.0,0.0,0.0,0.0,0.0,0.0
1680087693505669095,174,1680087693501436948,imu_of_uwb_link,0.0,0.0,0.0218148850346,0.99976202708,0.0,0.0,0.0,0.0,0.0,0.0,0.0,0.0,0.0,-0.005,0.009,0.004,0.0,0.0,0.0,0.0,0.0,0.0,0.0,0.0,0.0,-0.15,0.22,0.0,0.0,0.0,0.0,0.0,0.0,0.0,0.0,0.0,0.0
1680087693752568418,175,1680087693750960111,imu_of_uwb_link,0.0,0.0,0.0218148850346,0.99976202708,0.0,0.0,0.0,0.0,0.0,0.0,0.0,0.0,0.0,-0.005,0.009,0.004,0.0,0.0,0.0,0.0,0.0,0.0,0.0,0.0,0.0,-0.15,0.22,0.0,0.0,0.0,0.0,0.0,0.0,0.0,0.0,0.0,0.0
1680087694001615762,176,1680087694000935077,imu_of_uwb_link,0.0,0.0,0.0218148850346,0.99976202708,0.0,0.0,0.0,0.0,0.0,0.0,0.0,0.0,0.0,-0.005,0.009,0.004,0.0,0.0,0.0,0.0,0.0,0.0,0.0,0.0,0.0,-0.15,0.22,0.0,0.0,0.0,0.0,0.0,0.0,0.0,0.0,0.0,0.0
1680087694252970866,177,1680087694250775098,imu_of_uwb_link,0.0,0.0,0.0218148850346,0.99976202708,0.0,0.0,0.0,0.0,0.0,0.0,0.0,0.0,0.0,-0.005,0.009,0.004,0.0,0.0,0.0,0.0,0.0,0.0,0.0,0.0,0.0,-0.15,0.22,0.0,0.0,0.0,0.0,0.0,0.0,0.0,0.0,0.0,0.0
1680087694501789824,178,1680087694500365972,imu_of_uwb_link,0.0,0.0,0.0218148850346,0.99976202708,0.0,0.0,0.0,0.0,0.0,0.0,0.0,0.0,0.0,-0.005,0.009,0.004,0.0,0.0,0.0,0.0,0.0,0.0,0.0,0.0,0.0,-0.15,0.22,0.0,0.0,0.0,0.0,0.0,0.0,0.0,0.0,0.0,0.0
1680087694751831126,179,1680087694750632047,imu_of_uwb_link,0.0,0.0,0.0218148850346,0.99976202708,0.0,0.0,0.0,0.0,0.0,0.0,0.0,0.0,0.0,-0.005,0.009,0.004,0.0,0.0,0.0,0.0,0.0,0.0,0.0,0.0,0.0,-0.15,0.22,0.0,0.0,0.0,0.0,0.0,0.0,0.0,0.0,0.0,0.0
1680087695005954043,180,1680087695002146959,imu_of_uwb_link,0.0,0.0,0.0218148850346,0.99976202708,0.0,0.0,0.0,0.0,0.0,0.0,0.0,0.0,0.0,-0.005,0.009,0.004,0.0,0.0,0.0,0.0,0.0,0.0,0.0,0.0,0.0,-0.15,0.22,0.0,0.0,0.0,0.0,0.0,0.0,0.0,0.0,0.0,0.0
1680087695252213626,181,1680087695251034021,imu_of_uwb_link,0.0,0.0,0.0218148850346,0.99976202708,0.0,0.0,0.0,0.0,0.0,0.0,0.0,0.0,0.0,-0.005,0.009,0.004,0.0,0.0,0.0,0.0,0.0,0.0,0.0,0.0,0.0,-0.15,0.22,0.0,0.0,0.0,0.0,0.0,0.0,0.0,0.0,0.0,0.0
1680087695502985188,182,1680087695501379966,imu_of_uwb_link,0.0,0.0,0.0218148850346,0.99976202708,0.0,0.0,0.0,0.0,0.0,0.0,0.0,0.0,0.0,-0.005,0.009,0.004,0.0,0.0,0.0,0.0,0.0,0.0,0.0,0.0,0.0,-0.15,0.22,0.0,0.0,0.0,0.0,0.0,0.0,0.0,0.0,0.0,0.0
1680087695751974668,183,1680087695750736951,imu_of_uwb_link,0.0,0.0,0.0218148850346,0.99976202708,0.0,0.0,0.0,0.0,0.0,0.0,0.0,0.0,0.0,-0.005,0.009,0.004,0.0,0.0,0.0,0.0,0.0,0.0,0.0,0.0,0.0,-0.15,0.22,0.0,0.0,0.0,0.0,0.0,0.0,0.0,0.0,0.0,0.0
1680087696001871178,184,1680087696000691890,imu_of_uwb_link,0.0,0.0,0.0218148850346,0.99976202708,0.0,0.0,0.0,0.0,0.0,0.0,0.0,0.0,0.0,-0.005,0.009,0.004,0.0,0.0,0.0,0.0,0.0,0.0,0.0,0.0,0.0,-0.15,0.22,0.0,0.0,0.0,0.0,0.0,0.0,0.0,0.0,0.0,0.0
1680087696252221230,185,1680087696251054048,imu_of_uwb_link,0.0,0.0,0.0218148850346,0.99976202708,0.0,0.0,0.0,0.0,0.0,0.0,0.0,0.0,0.0,-0.005,0.009,0.004,0.0,0.0,0.0,0.0,0.0,0.0,0.0,0.0,0.0,-0.15,0.22,0.0,0.0,0.0,0.0,0.0,0.0,0.0,0.0,0.0,0.0
1680087696503544719,186,1680087696500850915,imu_of_uwb_link,0.0,0.0,0.0218148850346,0.99976202708,0.0,0.0,0.0,0.0,0.0,0.0,0.0,0.0,0.0,-0.005,0.009,0.004,0.0,0.0,0.0,0.0,0.0,0.0,0.0,0.0,0.0,-0.15,0.22,0.0,0.0,0.0,0.0,0.0,0.0,0.0,0.0,0.0,0.0
1680087696751881594,187,1680087696750495910,imu_of_uwb_link,0.0,0.0,0.0218148850346,0.99976202708,0.0,0.0,0.0,0.0,0.0,0.0,0.0,0.0,0.0,-0.005,0.009,0.004,0.0,0.0,0.0,0.0,0.0,0.0,0.0,0.0,0.0,-0.15,0.22,0.0,0.0,0.0,0.0,0.0,0.0,0.0,0.0,0.0,0.0
1680087697001665032,188,1680087697000649929,imu_of_uwb_link,0.0,0.0,0.0218148850346,0.99976202708,0.0,0.0,0.0,0.0,0.0,0.0,0.0,0.0,0.0,-0.005,0.009,0.004,0.0,0.0,0.0,0.0,0.0,0.0,0.0,0.0,0.0,-0.15,0.22,0.0,0.0,0.0,0.0,0.0,0.0,0.0,0.0,0.0,0.0
1680087697252409979,189,1680087697250544071,imu_of_uwb_link,0.0,0.0,0.0218148850346,0.99976202708,0.0,0.0,0.0,0.0,0.0,0.0,0.0,0.0,0.0,-0.005,0.009,0.004,0.0,0.0,0.0,0.0,0.0,0.0,0.0,0.0,0.0,-0.15,0.22,0.0,0.0,0.0,0.0,0.0,0.0,0.0,0.0,0.0,0.0
1680087697508382948,190,1680087697502094030,imu_of_uwb_link,0.0,0.0,0.0218148850346,0.99976202708,0.0,0.0,0.0,0.0,0.0,0.0,0.0,0.0,0.0,-0.005,0.009,0.004,0.0,0.0,0.0,0.0,0.0,0.0,0.0,0.0,0.0,-0.15,0.22,0.0,0.0,0.0,0.0,0.0,0.0,0.0,0.0,0.0,0.0
1680087697753312063,191,1680087697750683069,imu_of_uwb_link,0.0,0.0,0.0218148850346,0.99976202708,0.0,0.0,0.0,0.0,0.0,0.0,0.0,0.0,0.0,-0.005,0.009,0.004,0.0,0.0,0.0,0.0,0.0,0.0,0.0,0.0,0.0,-0.15,0.22,0.0,0.0,0.0,0.0,0.0,0.0,0.0,0.0,0.0,0.0
1680087698003047375,192,1680087698001211881,imu_of_uwb_link,0.0,0.0,0.0218148850346,0.99976202708,0.0,0.0,0.0,0.0,0.0,0.0,0.0,0.0,0.0,-0.005,0.009,0.004,0.0,0.0,0.0,0.0,0.0,0.0,0.0,0.0,0.0,-0.15,0.22,0.0,0.0,0.0,0.0,0.0,0.0,0.0,0.0,0.0,0.0
1680087698253024562,193,1680087698250879049,imu_of_uwb_link,0.0,0.0,0.0218148850346,0.99976202708,0.0,0.0,0.0,0.0,0.0,0.0,0.0,0.0,0.0,-0.005,0.009,0.004,0.0,0.0,0.0,0.0,0.0,0.0,0.0,0.0,0.0,-0.15,0.22,0.0,0.0,0.0,0.0,0.0,0.0,0.0,0.0,0.0,0.0
1680087698502774250,194,1680087698500430107,imu_of_uwb_link,0.0,0.0,0.0218148850346,0.99976202708,0.0,0.0,0.0,0.0,0.0,0.0,0.0,0.0,0.0,-0.005,0.009,0.004,0.0,0.0,0.0,0.0,0.0,0.0,0.0,0.0,0.0,-0.15,0.22,0.0,0.0,0.0,0.0,0.0,0.0,0.0,0.0,0.0,0.0
1680087698752854041,195,1680087698750989913,imu_of_uwb_link,0.0,0.0,0.0218148850346,0.99976202708,0.0,0.0,0.0,0.0,0.0,0.0,0.0,0.0,0.0,-0.005,0.009,0.004,0.0,0.0,0.0,0.0,0.0,0.0,0.0,0.0,0.0,-0.15,0.22,0.0,0.0,0.0,0.0,0.0,0.0,0.0,0.0,0.0,0.0
1680087699002090968,196,1680087699000931024,imu_of_uwb_link,0.0,0.0,0.0218148850346,0.99976202708,0.0,0.0,0.0,0.0,0.0,0.0,0.0,0.0,0.0,-0.005,0.009,0.004,0.0,0.0,0.0,0.0,0.0,0.0,0.0,0.0,0.0,-0.15,0.22,0.0,0.0,0.0,0.0,0.0,0.0,0.0,0.0,0.0,0.0
1680087699252799770,197,1680087699250889062,imu_of_uwb_link,0.0,0.0,0.0218148850346,0.99976202708,0.0,0.0,0.0,0.0,0.0,0.0,0.0,0.0,0.0,0.009364,-0.028241,-0.036965,0.0,0.0,0.0,0.0,0.0,0.0,0.0,0.0,0.0,-0.367725,-0.091035,9.618164,0.0,0.0,0.0,0.0,0.0,0.0,0.0,0.0,0.0
1680087699502705760,198,1680087699500818014,imu_of_uwb_link,0.0,0.0,0.0218148850346,0.99976202708,0.0,0.0,0.0,0.0,0.0,0.0,0.0,0.0,0.0,-0.005,0.009,0.004,0.0,0.0,0.0,0.0,0.0,0.0,0.0,0.0,0.0,-0.15,0.22,0.0,0.0,0.0,0.0,0.0,0.0,0.0,0.0,0.0,0.0
1680087699751674822,199,1680087699750714063,imu_of_uwb_link,0.0,0.0,0.0218148850346,0.99976202708,0.0,0.0,0.0,0.0,0.0,0.0,0.0,0.0,0.0,0.004044,-0.005364,0.005064,0.0,0.0,0.0,0.0,0.0,0.0,0.0,0.0,0.0,-0.281592,0.234355,9.596631,0.0,0.0,0.0,0.0,0.0,0.0,0.0,0.0,0.0
1680087700011100812,200,1680087700006829023,imu_of_uwb_link,0.0,0.0,0.0218148850346,0.99976202708,0.0,0.0,0.0,0.0,0.0,0.0,0.0,0.0,0.0,-0.005,0.009,0.004,0.0,0.0,0.0,0.0,0.0,0.0,0.0,0.0,0.0,-0.15,0.22,0.0,0.0,0.0,0.0,0.0,0.0,0.0,0.0,0.0,0.0
1680087700252866801,201,1680087700251507997,imu_of_uwb_link,0.0,0.0,0.0218148850346,0.99976202708,0.0,0.0,0.0,0.0,0.0,0.0,0.0,0.0,0.0,-0.005,0.009,0.004,0.0,0.0,0.0,0.0,0.0,0.0,0.0,0.0,0.0,-0.15,0.22,0.0,0.0,0.0,0.0,0.0,0.0,0.0,0.0,0.0,0.0
1680087700503812634,202,1680087700500849962,imu_of_uwb_link,0.0,0.0,0.0218148850346,0.99976202708,0.0,0.0,0.0,0.0,0.0,0.0,0.0,0.0,0.0,-0.005,0.009,0.004,0.0,0.0,0.0,0.0,0.0,0.0,0.0,0.0,0.0,-0.15,0.22,0.0,0.0,0.0,0.0,0.0,0.0,0.0,0.0,0.0,0.0
1680087700752121436,203,1680087700750643968,imu_of_uwb_link,0.0,0.0,0.0218148850346,0.99976202708,0.0,0.0,0.0,0.0,0.0,0.0,0.0,0.0,0.0,-0.005,0.009,0.004,0.0,0.0,0.0,0.0,0.0,0.0,0.0,0.0,0.0,-0.15,0.22,0.0,0.0,0.0,0.0,0.0,0.0,0.0,0.0,0.0,0.0
1680087701002157166,204,1680087701001422882,imu_of_uwb_link,0.0,0.0,0.0218148850346,0.99976202708,0.0,0.0,0.0,0.0,0.0,0.0,0.0,0.0,0.0,-0.005,0.009,0.004,0.0,0.0,0.0,0.0,0.0,0.0,0.0,0.0,0.0,-0.15,0.22,0.0,0.0,0.0,0.0,0.0,0.0,0.0,0.0,0.0,0.0
1680087701250890499,205,1680087701250304937,imu_of_uwb_link,0.0,0.0,0.0218148850346,0.99976202708,0.0,0.0,0.0,0.0,0.0,0.0,0.0,0.0,0.0,0.041817,0.003148,0.028473,0.0,0.0,0.0,0.0,0.0,0.0,0.0,0.0,0.0,-0.39165,0.270244,9.747363,0.0,0.0,0.0,0.0,0.0,0.0,0.0,0.0,0.0
