%time,field.header.seq,field.header.stamp,field.header.frame_id,field.orientation.x,field.orientation.y,field.orientation.z,field.orientation.w,field.orientation_covariance0,field.orientation_covariance1,field.orientation_covariance2,field.orientation_covariance3,field.orientation_covariance4,field.orientation_covariance5,field.orientation_covariance6,field.orientation_covariance7,field.orientation_covariance8,field.angular_velocity.x,field.angular_velocity.y,field.angular_velocity.z,field.angular_velocity_covariance0,field.angular_velocity_covariance1,field.angular_velocity_covariance2,field.angular_velocity_covariance3,field.angular_velocity_covariance4,field.angular_velocity_covariance5,field.angular_velocity_covariance6,field.angular_velocity_covariance7,field.angular_velocity_covariance8,field.linear_acceleration.x,field.linear_acceleration.y,field.linear_acceleration.z,field.linear_acceleration_covariance0,field.linear_acceleration_covariance1,field.linear_acceleration_covariance2,field.linear_acceleration_covariance3,field.linear_acceleration_covariance4,field.linear_acceleration_covariance5,field.linear_acceleration_covariance6,field.linear_acceleration_covariance7,field.linear_acceleration_covariance8
1682488143277041545,366,1682488142802907943,imu_of_uwb_link,0.0,0.0,0.0218148850346,0.99976202708,0.0,0.0,0.0,0.0,0.0,0.0,0.0,0.0,0.0,0.004256,-0.009576,-0.004788,0.0,0.0,0.0,0.0,0.0,0.0,0.0,0.0,0.0,0.68667,0.016748,9.62295,0.0,0.0,0.0,0.0,0.0,0.0,0.0,0.0,0.0
1682488143277828433,367,1682488143052639961,imu_of_uwb_link,0.0,0.0,0.0218148850346,0.99976202708,0.0,0.0,0.0,0.0,0.0,0.0,0.0,0.0,0.0,0.004256,-0.00798,-0.004788,0.0,0.0,0.0,0.0,0.0,0.0,0.0,0.0,0.0,0.684277,0.019141,9.615771,0.0,0.0,0.0,0.0,0.0,0.0,0.0,0.0,0.0
1682488143303384191,368,1682488143302644968,imu_of_uwb_link,0.0,0.0,0.0218148850346,0.99976202708,0.0,0.0,0.0,0.0,0.0,0.0,0.0,0.0,0.0,0.004256,-0.009044,-0.004256,0.0,0.0,0.0,0.0,0.0,0.0,0.0,0.0,0.0,0.681885,0.011963,9.637304,0.0,0.0,0.0,0.0,0.0,0.0,0.0,0.0,0.0
1682488143555670458,369,1682488143553345918,imu_of_uwb_link,0.0,0.0,0.0218148850346,0.99976202708,0.0,0.0,0.0,0.0,0.0,0.0,0.0,0.0,0.0,0.004256,-0.009044,-0.003192,0.0,0.0,0.0,0.0,0.0,0.0,0.0,0.0,0.0,0.689062,0.023926,9.620557,0.0,0.0,0.0,0.0,0.0,0.0,0.0,0.0,0.0
1682488143805050893,370,1682488143802700042,imu_of_uwb_link,0.0,0.0,0.0218148850346,0.99976202708,0.0,0.0,0.0,0.0,0.0,0.0,0.0,0.0,0.0,0.004256,-0.00798,-0.003192,0.0,0.0,0.0,0.0,0.0,0.0,0.0,0.0,0.0,0.684277,0.016748,9.613379,0.0,0.0,0.0,0.0,0.0,0.0,0.0,0.0,0.0
1682488144055751664,371,1682488144052982091,imu_of_uwb_link,0.0,0.0,0.0218148850346,0.99976202708,0.0,0.0,0.0,0.0,0.0,0.0,0.0,0.0,0.0,0.004256,-0.00798,-0.003192,0.0,0.0,0.0,0.0,0.0,0.0,0.0,0.0,0.0,0.684277,0.023926,9.618164,0.0,0.0,0.0,0.0,0.0,0.0,0.0,0.0,0.0
1682488144304358440,372,1682488144303189992,imu_of_uwb_link,0.0,0.0,0.0218148850346,0.99976202708,0.0,0.0,0.0,0.0,0.0,0.0,0.0,0.0,0.0,0.00532,-0.009044,-0.00266,0.0,0.0,0.0,0.0,0.0,0.0,0.0,0.0,0.0,0.681885,0.023926,9.610987,0.0,0.0,0.0,0.0,0.0,0.0,0.0,0.0,0.0
1682488144554148570,373,1682488144553195953,imu_of_uwb_link,0.0,0.0,0.0218148850346,0.99976202708,0.0,0.0,0.0,0.0,0.0,0.0,0.0,0.0,0.0,0.00532,-0.007448,-0.00266,0.0,0.0,0.0,0.0,0.0,0.0,0.0,0.0,0.0,0.679492,0.016748,9.625341,0.0,0.0,0.0,0.0,0.0,0.0,0.0,0.0,0.0
1682488144804525897,374,1682488144803034067,imu_of_uwb_link,0.0,0.0,0.0218148850346,0.99976202708,0.0,0.0,0.0,0.0,0.0,0.0,0.0,0.0,0.0,0.005852,-0.009044,-0.003724,0.0,0.0,0.0,0.0,0.0,0.0,0.0,0.0,0.0,0.6771,0.019141,9.620557,0.0,0.0,0.0,0.0,0.0,0.0,0.0,0.0,0.0
1682488145054667960,375,1682488145052793979,imu_of_uwb_link,0.0,0.0,0.0218148850346,0.99976202708,0.0,0.0,0.0,0.0,0.0,0.0,0.0,0.0,0.0,0.004788,-0.009044,-0.004256,0.0,0.0,0.0,0.0,0.0,0.0,0.0,0.0,0.0,0.684277,0.019141,9.606201,0.0,0.0,0.0,0.0,0.0,0.0,0.0,0.0,0.0
1682488145304251941,376,1682488145302917957,imu_of_uwb_link,0.0,0.0,0.0218148850346,0.99976202708,0.0,0.0,0.0,0.0,0.0,0.0,0.0,0.0,0.0,0.00532,-0.009044,-0.003192,0.0,0.0,0.0,0.0,0.0,0.0,0.0,0.0,0.0,0.684277,0.014355,9.62295,0.0,0.0,0.0,0.0,0.0,0.0,0.0,0.0,0.0
1682488145553359923,377,1682488145552834033,imu_of_uwb_link,0.0,0.0,0.0218148850346,0.99976202708,0.0,0.0,0.0,0.0,0.0,0.0,0.0,0.0,0.0,0.004256,-0.007448,-0.004256,0.0,0.0,0.0,0.0,0.0,0.0,0.0,0.0,0.0,0.679492,0.023926,9.596631,0.0,0.0,0.0,0.0,0.0,0.0,0.0,0.0,0.0
1682488145807945345,378,1682488145803248882,imu_of_uwb_link,0.0,0.0,0.0218148850346,0.99976202708,0.0,0.0,0.0,0.0,0.0,0.0,0.0,0.0,0.0,0.0,0.0,0.0,0.0,0.0,0.0,0.0,0.0,0.0,0.0,0.0,0.0,0.0,0.0,0.0,0.0,0.0,0.0,0.0,0.0,0.0,0.0,0.0,0.0
1682488146053492744,379,1682488146052687883,imu_of_uwb_link,0.0,0.0,0.0218148850346,0.99976202708,0.0,0.0,0.0,0.0,0.0,0.0,0.0,0.0,0.0,0.003724,-0.00798,-0.002128,0.0,0.0,0.0,0.0,0.0,0.0,0.0,0.0,0.0,0.679492,0.021533,9.610987,0.0,0.0,0.0,0.0,0.0,0.0,0.0,0.0,0.0
1682488146304719722,380,1682488146302797079,imu_of_uwb_link,0.0,0.0,0.0218148850346,0.99976202708,0.0,0.0,0.0,0.0,0.0,0.0,0.0,0.0,0.0,0.003192,-0.009044,-0.003724,0.0,0.0,0.0,0.0,0.0,0.0,0.0,0.0,0.0,0.6771,0.021533,9.618164,0.0,0.0,0.0,0.0,0.0,0.0,0.0,0.0,0.0
1682488146556332227,381,1682488146553353071,imu_of_uwb_link,0.0,0.0,0.0218148850346,0.99976202708,0.0,0.0,0.0,0.0,0.0,0.0,0.0,0.0,0.0,0.003724,-0.008512,-0.003192,0.0,0.0,0.0,0.0,0.0,0.0,0.0,0.0,0.0,0.681885,0.014355,9.613379,0.0,0.0,0.0,0.0,0.0,0.0,0.0,0.0,0.0
1682488146803787055,382,1682488146802755117,imu_of_uwb_link,0.0,0.0,0.0218148850346,0.99976202708,0.0,0.0,0.0,0.0,0.0,0.0,0.0,0.0,0.0,0.004256,-0.009044,-0.004256,0.0,0.0,0.0,0.0,0.0,0.0,0.0,0.0,0.0,0.6771,0.021533,9.610987,0.0,0.0,0.0,0.0,0.0,0.0,0.0,0.0,0.0
1682488147056409369,383,1682488147053193092,imu_of_uwb_link,0.0,0.0,0.0218148850346,0.99976202708,0.0,0.0,0.0,0.0,0.0,0.0,0.0,0.0,0.0,0.004788,-0.008512,-0.00266,0.0,0.0,0.0,0.0,0.0,0.0,0.0,0.0,0.0,0.6771,0.023926,9.618164,0.0,0.0,0.0,0.0,0.0,0.0,0.0,0.0,0.0
1682488147303084080,384,1682488147302484035,imu_of_uwb_link,0.0,0.0,0.0218148850346,0.99976202708,0.0,0.0,0.0,0.0,0.0,0.0,0.0,0.0,0.0,0.003724,-0.009044,-0.00266,0.0,0.0,0.0,0.0,0.0,0.0,0.0,0.0,0.0,0.6771,0.019141,9.618164,0.0,0.0,0.0,0.0,0.0,0.0,0.0,0.0,0.0
1682488147554214962,385,1682488147552778959,imu_of_uwb_link,0.0,0.0,0.0218148850346,0.99976202708,0.0,0.0,0.0,0.0,0.0,0.0,0.0,0.0,0.0,0.003724,-0.009044,-0.003724,0.0,0.0,0.0,0.0,0.0,0.0,0.0,0.0,0.0,0.681885,0.026318,9.618164,0.0,0.0,0.0,0.0,0.0,0.0,0.0,0.0,0.0
1682488147808787883,386,1682488147803208112,imu_of_uwb_link,0.0,0.0,0.0218148850346,0.99976202708,0.0,0.0,0.0,0.0,0.0,0.0,0.0,0.0,0.0,0.004256,-0.00798,-0.003192,0.0,0.0,0.0,0.0,0.0,0.0,0.0,0.0,0.0,0.679492,0.021533,9.613379,0.0,0.0,0.0,0.0,0.0,0.0,0.0,0.0,0.0
1682488148055670254,387,1682488148052747964,imu_of_uwb_link,0.0,0.0,0.0218148850346,0.99976202708,0.0,0.0,0.0,0.0,0.0,0.0,0.0,0.0,0.0,0.005852,-0.008512,-0.003724,0.0,0.0,0.0,0.0,0.0,0.0,0.0,0.0,0.0,0.684277,0.026318,9.620557,0.0,0.0,0.0,0.0,0.0,0.0,0.0,0.0,0.0
1682488148304689953,388,1682488148302887916,imu_of_uwb_link,0.0,0.0,0.0218148850346,0.99976202708,0.0,0.0,0.0,0.0,0.0,0.0,0.0,0.0,0.0,0.003724,-0.009044,-0.003192,0.0,0.0,0.0,0.0,0.0,0.0,0.0,0.0,0.0,0.6771,0.019141,9.608594,0.0,0.0,0.0,0.0,0.0,0.0,0.0,0.0,0.0
1682488148553503138,389,1682488148552835941,imu_of_uwb_link,0.0,0.0,0.0218148850346,0.99976202708,0.0,0.0,0.0,0.0,0.0,0.0,0.0,0.0,0.0,0.00532,-0.009044,-0.003724,0.0,0.0,0.0,0.0,0.0,0.0,0.0,0.0,0.0,0.679492,0.019141,9.618164,0.0,0.0,0.0,0.0,0.0,0.0,0.0,0.0,0.0
1682488148804901160,390,1682488148803992033,imu_of_uwb_link,0.0,0.0,0.0218148850346,0.99976202708,0.0,0.0,0.0,0.0,0.0,0.0,0.0,0.0,0.0,0.00532,-0.009044,-0.003192,0.0,0.0,0.0,0.0,0.0,0.0,0.0,0.0,0.0,0.674707,0.021533,9.615771,0.0,0.0,0.0,0.0,0.0,0.0,0.0,0.0,0.0
1682488149054734571,391,1682488149053247928,imu_of_uwb_link,0.0,0.0,0.0218148850346,0.99976202708,0.0,0.0,0.0,0.0,0.0,0.0,0.0,0.0,0.0,0.004256,-0.009044,-0.002128,0.0,0.0,0.0,0.0,0.0,0.0,0.0,0.0,0.0,0.674707,0.021533,9.627734,0.0,0.0,0.0,0.0,0.0,0.0,0.0,0.0,0.0
1682488149304415375,392,1682488149302575111,imu_of_uwb_link,0.0,0.0,0.0218148850346,0.99976202708,0.0,0.0,0.0,0.0,0.0,0.0,0.0,0.0,0.0,0.004256,-0.00798,-0.003192,0.0,0.0,0.0,0.0,0.0,0.0,0.0,0.0,0.0,0.681885,0.023926,9.618164,0.0,0.0,0.0,0.0,0.0,0.0,0.0,0.0,0.0
1682488149554601501,393,1682488149553329944,imu_of_uwb_link,0.0,0.0,0.0218148850346,0.99976202708,0.0,0.0,0.0,0.0,0.0,0.0,0.0,0.0,0.0,0.003724,-0.00798,-0.004256,0.0,0.0,0.0,0.0,0.0,0.0,0.0,0.0,0.0,0.679492,0.021533,9.596631,0.0,0.0,0.0,0.0,0.0,0.0,0.0,0.0,0.0
1682488149803820631,394,1682488149802613973,imu_of_uwb_link,0.0,0.0,0.0218148850346,0.99976202708,0.0,0.0,0.0,0.0,0.0,0.0,0.0,0.0,0.0,0.004256,-0.009044,-0.003724,0.0,0.0,0.0,0.0,0.0,0.0,0.0,0.0,0.0,0.679492,0.019141,9.606201,0.0,0.0,0.0,0.0,0.0,0.0,0.0,0.0,0.0
1682488150055914290,395,1682488150053287982,imu_of_uwb_link,0.0,0.0,0.0218148850346,0.99976202708,0.0,0.0,0.0,0.0,0.0,0.0,0.0,0.0,0.0,0.004256,-0.00798,-0.002128,0.0,0.0,0.0,0.0,0.0,0.0,0.0,0.0,0.0,0.681885,0.021533,9.594238,0.0,0.0,0.0,0.0,0.0,0.0,0.0,0.0,0.0
1682488150305282015,396,1682488150302931070,imu_of_uwb_link,0.0,0.0,0.0218148850346,0.99976202708,0.0,0.0,0.0,0.0,0.0,0.0,0.0,0.0,0.0,0.003724,-0.007448,-0.004256,0.0,0.0,0.0,0.0,0.0,0.0,0.0,0.0,0.0,0.689062,0.023926,9.579883,0.0,0.0,0.0,0.0,0.0,0.0,0.0,0.0,0.0
1682488150558005164,397,1682488150553366899,imu_of_uwb_link,0.0,0.0,0.0218148850346,0.99976202708,0.0,0.0,0.0,0.0,0.0,0.0,0.0,0.0,0.0,0.004788,-0.009576,-0.003192,0.0,0.0,0.0,0.0,0.0,0.0,0.0,0.0,0.0,0.679492,0.019141,9.582275,0.0,0.0,0.0,0.0,0.0,0.0,0.0,0.0,0.0
1682488150804769407,398,1682488150802933931,imu_of_uwb_link,0.0,0.0,0.0218148850346,0.99976202708,0.0,0.0,0.0,0.0,0.0,0.0,0.0,0.0,0.0,0.01064,-0.029793,-0.003192,0.0,0.0,0.0,0.0,0.0,0.0,0.0,0.0,0.0,0.466553,0.052637,9.721045,0.0,0.0,0.0,0.0,0.0,0.0,0.0,0.0,0.0
1682488151055175120,399,1682488151053632020,imu_of_uwb_link,0.0,0.0,0.0218148850346,0.99976202708,0.0,0.0,0.0,0.0,0.0,0.0,0.0,0.0,0.0,0.00266,0.085654,-0.00798,0.0,0.0,0.0,0.0,0.0,0.0,0.0,0.0,0.0,0.557471,-0.052637,9.479395,0.0,0.0,0.0,0.0,0.0,0.0,0.0,0.0,0.0
1682488151304160026,400,1682488151303312063,imu_of_uwb_link,0.0,0.0,0.0218148850346,0.99976202708,0.0,0.0,0.0,0.0,0.0,0.0,0.0,0.0,0.0,0.031389,-0.030325,-0.00532,0.0,0.0,0.0,0.0,0.0,0.0,0.0,0.0,0.0,0.516797,0.6771,9.649267,0.0,0.0,0.0,0.0,0.0,0.0,0.0,0.0,0.0
1682488151554564437,401,1682488151552658081,imu_of_uwb_link,0.0,0.0,0.0218148850346,0.99976202708,0.0,0.0,0.0,0.0,0.0,0.0,0.0,0.0,0.0,0.144707,-0.201101,-0.10587,0.0,0.0,0.0,0.0,0.0,0.0,0.0,0.0,0.0,1.550391,-0.143555,9.957911,0.0,0.0,0.0,0.0,0.0,0.0,0.0,0.0,0.0
1682488151805221768,402,1682488151802719116,imu_of_uwb_link,0.0,0.0,0.0218148850346,0.99976202708,0.0,0.0,0.0,0.0,0.0,0.0,0.0,0.0,0.0,0.17716,-0.361768,-0.102678,0.0,0.0,0.0,0.0,0.0,0.0,0.0,0.0,0.0,0.490479,0.011963,9.972265,0.0,0.0,0.0,0.0,0.0,0.0,0.0,0.0,0.0
1682488152053889951,403,1682488152052668094,imu_of_uwb_link,0.0,0.0,0.0218148850346,0.99976202708,0.0,0.0,0.0,0.0,0.0,0.0,0.0,0.0,0.0,0.180884,0.003724,0.048945,0.0,0.0,0.0,0.0,0.0,0.0,0.0,0.0,0.0,1.146045,0.564648,9.460254,0.0,0.0,0.0,0.0,0.0,0.0,0.0,0.0,0.0
1682488152305141667,404,1682488152303174018,imu_of_uwb_link,0.0,0.0,0.0218148850346,0.99976202708,0.0,0.0,0.0,0.0,0.0,0.0,0.0,0.0,0.0,0.006384,0.162796,0.197909,0.0,0.0,0.0,0.0,0.0,0.0,0.0,0.0,0.0,1.248926,1.174756,9.687549,0.0,0.0,0.0,0.0,0.0,0.0,0.0,0.0,0.0
1682488152554194804,405,1682488152553033113,imu_of_uwb_link,0.0,0.0,0.0218148850346,0.99976202708,0.0,0.0,0.0,0.0,0.0,0.0,0.0,0.0,0.0,0.194716,-0.107998,0.01596,0.0,0.0,0.0,0.0,0.0,0.0,0.0,0.0,0.0,-0.665137,-0.129199,9.555957,0.0,0.0,0.0,0.0,0.0,0.0,0.0,0.0,0.0
1682488152804819531,406,1682488152803257942,imu_of_uwb_link,0.0,0.0,0.0218148850346,0.99976202708,0.0,0.0,0.0,0.0,0.0,0.0,0.0,0.0,0.0,-0.458595,-0.133003,-0.181416,0.0,0.0,0.0,0.0,0.0,0.0,0.0,0.0,0.0,1.806396,3.423779,9.29038,0.0,0.0,0.0,0.0,0.0,0.0,0.0,0.0,0.0
1682488153057179913,407,1682488153053282976,imu_of_uwb_link,0.0,0.0,0.0218148850346,0.99976202708,0.0,0.0,0.0,0.0,0.0,0.0,0.0,0.0,0.0,-0.070758,0.146835,0.055861,0.0,0.0,0.0,0.0,0.0,0.0,0.0,0.0,0.0,1.083838,-0.555078,8.572607,0.0,0.0,0.0,0.0,0.0,0.0,0.0,0.0,0.0
1682488153303936030,408,1682488153302562952,imu_of_uwb_link,0.0,0.0,0.0218148850346,0.99976202708,0.0,0.0,0.0,0.0,0.0,0.0,0.0,0.0,0.0,0.315483,0.006384,0.139919,0.0,0.0,0.0,0.0,0.0,0.0,0.0,0.0,0.0,1.473828,0.904395,9.761719,0.0,0.0,0.0,0.0,0.0,0.0,0.0,0.0,0.0
1682488153553711106,409,1682488153552581071,imu_of_uwb_link,0.0,0.0,0.0218148850346,0.99976202708,0.0,0.0,0.0,0.0,0.0,0.0,0.0,0.0,0.0,0.019684,-0.145771,-0.223977,0.0,0.0,0.0,0.0,0.0,0.0,0.0,0.0,0.0,1.471436,1.524072,10.027295,0.0,0.0,0.0,0.0,0.0,0.0,0.0,0.0,0.0
1682488153805505437,410,1682488153803158044,imu_of_uwb_link,0.0,0.0,0.0218148850346,0.99976202708,0.0,0.0,0.0,0.0,0.0,0.0,0.0,0.0,0.0,-0.225573,0.139919,0.170776,0.0,0.0,0.0,0.0,0.0,0.0,0.0,0.0,0.0,1.866211,-0.071777,8.244824,0.0,0.0,0.0,0.0,0.0,0.0,0.0,0.0,0.0
1682488154053702829,411,1682488154053004026,imu_of_uwb_link,0.0,0.0,0.0218148850346,0.99976202708,0.0,0.0,0.0,0.0,0.0,0.0,0.0,0.0,0.0,0.124491,0.121831,0.074482,0.0,0.0,0.0,0.0,0.0,0.0,0.0,0.0,0.0,2.471533,0.160303,10.218701,0.0,0.0,0.0,0.0,0.0,0.0,0.0,0.0,0.0
1682488154305874353,412,1682488154303663015,imu_of_uwb_link,0.0,0.0,0.0218148850346,0.99976202708,0.0,0.0,0.0,0.0,0.0,0.0,0.0,0.0,0.0,0.106934,-0.253238,-0.02128,0.0,0.0,0.0,0.0,0.0,0.0,0.0,0.0,0.0,2.067188,1.36377,9.936377,0.0,0.0,0.0,0.0,0.0,0.0,0.0,0.0,0.0
1682488154557244041,413,1682488154554321050,imu_of_uwb_link,0.0,0.0,0.0218148850346,0.99976202708,0.0,0.0,0.0,0.0,0.0,0.0,0.0,0.0,0.0,-0.186204,-0.030857,0.0133,0.0,0.0,0.0,0.0,0.0,0.0,0.0,0.0,0.0,2.320801,1.68916,8.979345,0.0,0.0,0.0,0.0,0.0,0.0,0.0,0.0,0.0
1682488154804602356,414,1682488154803380012,imu_of_uwb_link,0.0,0.0,0.0218148850346,0.99976202708,0.0,0.0,0.0,0.0,0.0,0.0,0.0,0.0,0.0,0.130875,0.236745,0.078206,0.0,0.0,0.0,0.0,0.0,0.0,0.0,0.0,0.0,0.916357,0.839795,9.283203,0.0,0.0,0.0,0.0,0.0,0.0,0.0,0.0,0.0
1682488155054842440,415,1682488155053383111,imu_of_uwb_link,0.0,0.0,0.0218148850346,0.99976202708,0.0,0.0,0.0,0.0,0.0,0.0,0.0,0.0,0.0,-0.046817,0.1745,-0.082462,0.0,0.0,0.0,0.0,0.0,0.0,0.0,0.0,0.0,0.736914,2.430859,10.005762,0.0,0.0,0.0,0.0,0.0,0.0,0.0,0.0,0.0
1682488155305356696,416,1682488155302961111,imu_of_uwb_link,0.0,0.0,0.0218148850346,0.99976202708,0.0,0.0,0.0,0.0,0.0,0.0,0.0,0.0,0.0,-0.133535,0.054797,0.089378,0.0,0.0,0.0,0.0,0.0,0.0,0.0,0.0,0.0,1.543213,0.325391,9.211426,0.0,0.0,0.0,0.0,0.0,0.0,0.0,0.0,0.0
1682488155555212659,417,1682488155553003072,imu_of_uwb_link,0.0,0.0,0.0218148850346,0.99976202708,0.0,0.0,0.0,0.0,0.0,0.0,0.0,0.0,0.0,0.203761,0.223977,0.106934,0.0,0.0,0.0,0.0,0.0,0.0,0.0,0.0,0.0,1.442725,1.851856,8.950635,0.0,0.0,0.0,0.0,0.0,0.0,0.0,0.0,0.0
1682488155806115046,418,1682488155803251981,imu_of_uwb_link,0.0,0.0,0.0218148850346,0.99976202708,0.0,0.0,0.0,0.0,0.0,0.0,0.0,0.0,0.0,-0.211741,-0.027133,-0.317611,0.0,0.0,0.0,0.0,0.0,0.0,0.0,0.0,0.0,2.196387,2.660547,9.553564,0.0,0.0,0.0,0.0,0.0,0.0,0.0,0.0,0.0
1682488156057353220,419,1682488156052807092,imu_of_uwb_link,0.0,0.0,0.0218148850346,0.99976202708,0.0,0.0,0.0,0.0,0.0,0.0,0.0,0.0,0.0,0.073418,0.129279,0.01596,0.0,0.0,0.0,0.0,0.0,0.0,0.0,0.0,0.0,0.023926,-0.287109,8.448194,0.0,0.0,0.0,0.0,0.0,0.0,0.0,0.0,0.0
1682488156303988971,420,1682488156302640914,imu_of_uwb_link,0.0,0.0,0.0218148850346,0.99976202708,0.0,0.0,0.0,0.0,0.0,0.0,0.0,0.0,0.0,0.123959,0.039369,0.088314,0.0,0.0,0.0,0.0,0.0,0.0,0.0,0.0,0.0,0.110059,0.765625,10.079931,0.0,0.0,0.0,0.0,0.0,0.0,0.0,0.0,0.0
1682488156555716216,421,1682488156553224086,imu_of_uwb_link,0.0,0.0,0.0218148850346,0.99976202708,0.0,0.0,0.0,0.0,0.0,0.0,0.0,0.0,0.0,-0.024473,0.015428,-0.080334,0.0,0.0,0.0,0.0,0.0,0.0,0.0,0.0,0.0,2.332764,2.45957,9.299952,0.0,0.0,0.0,0.0,0.0,0.0,0.0,0.0,0.0
1682488156804866281,422,1682488156802639007,imu_of_uwb_link,0.0,0.0,0.0218148850346,0.99976202708,0.0,0.0,0.0,0.0,0.0,0.0,0.0,0.0,0.0,-0.017024,0.298459,0.17982,0.0,0.0,0.0,0.0,0.0,0.0,0.0,0.0,0.0,2.373437,1.306348,8.842969,0.0,0.0,0.0,0.0,0.0,0.0,0.0,0.0,0.0
1682488157053710820,423,1682488157052656888,imu_of_uwb_link,0.0,0.0,0.0218148850346,0.99976202708,0.0,0.0,0.0,0.0,0.0,0.0,0.0,0.0,0.0,0.288351,-0.212805,0.01596,0.0,0.0,0.0,0.0,0.0,0.0,0.0,0.0,0.0,0.44502,1.2896,9.563135,0.0,0.0,0.0,0.0,0.0,0.0,0.0,0.0,0.0
1682488157305269781,424,1682488157302699089,imu_of_uwb_link,0.0,0.0,0.0218148850346,0.99976202708,0.0,0.0,0.0,0.0,0.0,0.0,0.0,0.0,0.0,-0.374537,0.170244,0.013832,0.0,0.0,0.0,0.0,0.0,0.0,0.0,0.0,0.0,2.476318,0.832617,8.933887,0.0,0.0,0.0,0.0,0.0,0.0,0.0,0.0,0.0
1682488157555058763,425,1682488157552732944,imu_of_uwb_link,0.0,0.0,0.0218148850346,0.99976202708,0.0,0.0,0.0,0.0,0.0,0.0,0.0,0.0,0.0,0.239937,-0.051073,-0.046817,0.0,0.0,0.0,0.0,0.0,0.0,0.0,0.0,0.0,1.557568,0.739307,9.008057,0.0,0.0,0.0,0.0,0.0,0.0,0.0,0.0,0.0
1682488157804222839,426,1682488157802516937,imu_of_uwb_link,0.0,0.0,0.0218148850346,0.99976202708,0.0,0.0,0.0,0.0,0.0,0.0,0.0,0.0,0.0,0.090974,-0.397413,0.041497,0.0,0.0,0.0,0.0,0.0,0.0,0.0,0.0,0.0,2.825635,1.394873,9.766504,0.0,0.0,0.0,0.0,0.0,0.0,0.0,0.0,0.0
1682488158054201772,427,1682488158052597999,imu_of_uwb_link,0.0,0.0,0.0218148850346,0.99976202708,0.0,0.0,0.0,0.0,0.0,0.0,0.0,0.0,0.0,0.107998,0.160136,-0.027133,0.0,0.0,0.0,0.0,0.0,0.0,0.0,0.0,0.0,1.665234,1.533643,8.912354,0.0,0.0,0.0,0.0,0.0,0.0,0.0,0.0,0.0
1682488158304038307,428,1682488158302587032,imu_of_uwb_link,0.0,0.0,0.0218148850346,0.99976202708,0.0,0.0,0.0,0.0,0.0,0.0,0.0,0.0,0.0,-0.001596,0.045221,0.085654,0.0,0.0,0.0,0.0,0.0,0.0,0.0,0.0,0.0,0.47373,1.098193,9.565527,0.0,0.0,0.0,0.0,0.0,0.0,0.0,0.0,0.0
1682488158556008473,429,1682488158553189992,imu_of_uwb_link,0.0,0.0,0.0218148850346,0.99976202708,0.0,0.0,0.0,0.0,0.0,0.0,0.0,0.0,0.0,-0.069162,-0.051073,-0.051605,0.0,0.0,0.0,0.0,0.0,0.0,0.0,0.0,0.0,0.763232,0.684277,8.941065,0.0,0.0,0.0,0.0,0.0,0.0,0.0,0.0,0.0
1682488158804460921,430,1682488158802696943,imu_of_uwb_link,0.0,0.0,0.0218148850346,0.99976202708,0.0,0.0,0.0,0.0,0.0,0.0,0.0,0.0,0.0,-0.014896,-0.042029,-0.089378,0.0,0.0,0.0,0.0,0.0,0.0,0.0,0.0,0.0,1.088623,1.021631,10.314404,0.0,0.0,0.0,0.0,0.0,0.0,0.0,0.0,0.0
1682488159058458727,431,1682488159053828001,imu_of_uwb_link,0.0,0.0,0.0218148850346,0.99976202708,0.0,0.0,0.0,0.0,0.0,0.0,0.0,0.0,0.0,-0.070226,0.047349,-0.061181,0.0,0.0,0.0,0.0,0.0,0.0,0.0,0.0,0.0,1.658057,0.24165,9.515284,0.0,0.0,0.0,0.0,0.0,0.0,0.0,0.0,0.0
1682488159303992218,432,1682488159302602052,imu_of_uwb_link,0.0,0.0,0.0218148850346,0.99976202708,0.0,0.0,0.0,0.0,0.0,0.0,0.0,0.0,0.0,-0.011172,-0.034581,-0.034581,0.0,0.0,0.0,0.0,0.0,0.0,0.0,0.0,0.0,1.399658,0.177051,9.477002,0.0,0.0,0.0,0.0,0.0,0.0,0.0,0.0,0.0
1682488159553682761,433,1682488159552807092,imu_of_uwb_link,0.0,0.0,0.0218148850346,0.99976202708,0.0,0.0,0.0,0.0,0.0,0.0,0.0,0.0,0.0,-0.045221,0.093102,-0.057457,0.0,0.0,0.0,0.0,0.0,0.0,0.0,0.0,0.0,0.947461,0.272754,9.56792,0.0,0.0,0.0,0.0,0.0,0.0,0.0,0.0,0.0
1682488159806958939,434,1682488159803070068,imu_of_uwb_link,0.0,0.0,0.0218148850346,0.99976202708,0.0,0.0,0.0,0.0,0.0,0.0,0.0,0.0,0.0,-0.029261,0.056393,-0.01064,0.0,0.0,0.0,0.0,0.0,0.0,0.0,0.0,0.0,1.205859,-0.031104,9.70669,0.0,0.0,0.0,0.0,0.0,0.0,0.0,0.0,0.0
1682488160055082111,435,1682488160052985906,imu_of_uwb_link,0.0,0.0,0.0218148850346,0.99976202708,0.0,0.0,0.0,0.0,0.0,0.0,0.0,0.0,0.0,-0.011704,-0.011172,-0.00266,0.0,0.0,0.0,0.0,0.0,0.0,0.0,0.0,0.0,0.949854,0.124414,9.584668,0.0,0.0,0.0,0.0,0.0,0.0,0.0,0.0,0.0
1682488160305807880,436,1682488160303761959,imu_of_uwb_link,0.0,0.0,0.0218148850346,0.99976202708,0.0,0.0,0.0,0.0,0.0,0.0,0.0,0.0,0.0,-0.00798,-0.0133,-0.00266,0.0,0.0,0.0,0.0,0.0,0.0,0.0,0.0,0.0,0.83501,0.129199,9.601416,0.0,0.0,0.0,0.0,0.0,0.0,0.0,0.0,0.0
1682488160555021122,437,1682488160552871942,imu_of_uwb_link,0.0,0.0,0.0218148850346,0.99976202708,0.0,0.0,0.0,0.0,0.0,0.0,0.0,0.0,0.0,0.005852,-0.002128,-0.004256,0.0,0.0,0.0,0.0,0.0,0.0,0.0,0.0,0.0,0.875684,0.093311,9.599024,0.0,0.0,0.0,0.0,0.0,0.0,0.0,0.0,0.0
1682488160803379715,438,1682488160802903890,imu_of_uwb_link,0.0,0.0,0.0218148850346,0.99976202708,0.0,0.0,0.0,0.0,0.0,0.0,0.0,0.0,0.0,-0.023409,-0.053733,-0.000532,0.0,0.0,0.0,0.0,0.0,0.0,0.0,0.0,0.0,1.086231,0.181836,9.457861,0.0,0.0,0.0,0.0,0.0,0.0,0.0,0.0,0.0
1682488161054490282,439,1682488161053103923,imu_of_uwb_link,0.0,0.0,0.0218148850346,0.99976202708,0.0,0.0,0.0,0.0,0.0,0.0,0.0,0.0,0.0,-0.0133,-0.003724,-0.004256,0.0,0.0,0.0,0.0,0.0,0.0,0.0,0.0,0.0,0.868506,0.189014,9.570313,0.0,0.0,0.0,0.0,0.0,0.0,0.0,0.0,0.0
1682488161305908511,440,1682488161302731037,imu_of_uwb_link,0.0,0.0,0.0218148850346,0.99976202708,0.0,0.0,0.0,0.0,0.0,0.0,0.0,0.0,0.0,0.012768,-0.000532,-0.003724,0.0,0.0,0.0,0.0,0.0,0.0,0.0,0.0,0.0,0.815869,0.088525,9.591846,0.0,0.0,0.0,0.0,0.0,0.0,0.0,0.0,0.0
1682488161554247988,441,1682488161552759885,imu_of_uwb_link,0.0,0.0,0.0218148850346,0.99976202708,0.0,0.0,0.0,0.0,0.0,0.0,0.0,0.0,0.0,0.00798,-0.012236,-0.004788,0.0,0.0,0.0,0.0,0.0,0.0,0.0,0.0,0.0,0.825439,0.205762,9.673193,0.0,0.0,0.0,0.0,0.0,0.0,0.0,0.0,0.0
1682488161803854050,442,1682488161802859067,imu_of_uwb_link,0.0,0.0,0.0218148850346,0.99976202708,0.0,0.0,0.0,0.0,0.0,0.0,0.0,0.0,0.0,0.053201,0.024473,-0.001064,0.0,0.0,0.0,0.0,0.0,0.0,0.0,0.0,0.0,0.598145,0.172266,9.486572,0.0,0.0,0.0,0.0,0.0,0.0,0.0,0.0,0.0
1682488162055792288,443,1682488162053595066,imu_of_uwb_link,0.0,0.0,0.0218148850346,0.99976202708,0.0,0.0,0.0,0.0,0.0,0.0,0.0,0.0,0.0,0.228765,0.188864,-0.034049,0.0,0.0,0.0,0.0,0.0,0.0,0.0,0.0,0.0,0.122021,-0.035889,9.106153,0.0,0.0,0.0,0.0,0.0,0.0,0.0,0.0,0.0
1682488162305364026,444,1682488162302933931,imu_of_uwb_link,0.0,0.0,0.0218148850346,0.99976202708,0.0,0.0,0.0,0.0,0.0,0.0,0.0,0.0,0.0,0.320271,-0.009576,0.195248,0.0,0.0,0.0,0.0,0.0,0.0,0.0,0.0,0.0,0.172266,0.153125,9.658838,0.0,0.0,0.0,0.0,0.0,0.0,0.0,0.0,0.0
1682488162557224815,445,1682488162553467988,imu_of_uwb_link,0.0,0.0,0.0218148850346,0.99976202708,0.0,0.0,0.0,0.0,0.0,0.0,0.0,0.0,0.0,-0.01596,-0.202165,-0.052137,0.0,0.0,0.0,0.0,0.0,0.0,0.0,0.0,0.0,0.224902,-0.284717,10.029688,0.0,0.0,0.0,0.0,0.0,0.0,0.0,0.0,0.0
1682488162805395800,446,1682488162802685976,imu_of_uwb_link,0.0,0.0,0.0218148850346,0.99976202708,0.0,0.0,0.0,0.0,0.0,0.0,0.0,0.0,0.0,-0.053733,0.126087,-0.001064,0.0,0.0,0.0,0.0,0.0,0.0,0.0,0.0,0.0,-0.007178,-0.081348,9.886133,0.0,0.0,0.0,0.0,0.0,0.0,0.0,0.0,0.0
1682488163053657567,447,1682488163052917003,imu_of_uwb_link,0.0,0.0,0.0218148850346,0.99976202708,0.0,0.0,0.0,0.0,0.0,0.0,0.0,0.0,0.0,0.017556,-0.025537,0.123959,0.0,0.0,0.0,0.0,0.0,0.0,0.0,0.0,0.0,0.38042,1.184326,10.065577,0.0,0.0,0.0,0.0,0.0,0.0,0.0,0.0,0.0
1682488163304520213,448,1682488163302999019,imu_of_uwb_link,0.0,0.0,0.0218148850346,0.99976202708,0.0,0.0,0.0,0.0,0.0,0.0,0.0,0.0,0.0,0.093634,-0.094166,-0.070226,0.0,0.0,0.0,0.0,0.0,0.0,0.0,0.0,0.0,1.172363,0.155518,9.613379,0.0,0.0,0.0,0.0,0.0,0.0,0.0,0.0,0.0
1682488163553714757,449,1682488163552850008,imu_of_uwb_link,0.0,0.0,0.0218148850346,0.99976202708,0.0,0.0,0.0,0.0,0.0,0.0,0.0,0.0,0.0,0.128747,-0.026069,-0.073418,0.0,0.0,0.0,0.0,0.0,0.0,0.0,0.0,0.0,-0.007178,0.459375,9.941162,0.0,0.0,0.0,0.0,0.0,0.0,0.0,0.0,0.0
1682488163806561813,450,1682488163802802085,imu_of_uwb_link,0.0,0.0,0.0218148850346,0.99976202708,0.0,0.0,0.0,0.0,0.0,0.0,0.0,0.0,0.0,-0.187268,-0.045753,-0.030325,0.0,0.0,0.0,0.0,0.0,0.0,0.0,0.0,0.0,0.409131,0.732129,9.398046,0.0,0.0,0.0,0.0,0.0,0.0,0.0,0.0,0.0
1682488164055614010,451,1682488164052809953,imu_of_uwb_link,0.0,0.0,0.0218148850346,0.99976202708,0.0,0.0,0.0,0.0,0.0,0.0,0.0,0.0,0.0,0.208017,0.034581,-0.056925,0.0,0.0,0.0,0.0,0.0,0.0,0.0,0.0,0.0,0.203369,0.275146,9.426758,0.0,0.0,0.0,0.0,0.0,0.0,0.0,0.0,0.0
1682488164304731105,452,1682488164303097009,imu_of_uwb_link,0.0,0.0,0.0218148850346,0.99976202708,0.0,0.0,0.0,0.0,0.0,0.0,0.0,0.0,0.0,-0.132471,-0.131407,-0.040965,0.0,0.0,0.0,0.0,0.0,0.0,0.0,0.0,0.0,0.571826,1.91167,9.209033,0.0,0.0,0.0,0.0,0.0,0.0,0.0,0.0,0.0
1682488164555953080,453,1682488164553456068,imu_of_uwb_link,0.0,0.0,0.0218148850346,0.99976202708,0.0,0.0,0.0,0.0,0.0,0.0,0.0,0.0,0.0,0.259622,0.032985,-0.113851,0.0,0.0,0.0,0.0,0.0,0.0,0.0,0.0,0.0,0.471338,0.263184,9.120508,0.0,0.0,0.0,0.0,0.0,0.0,0.0,0.0,0.0
1682488164805119134,454,1682488164803356885,imu_of_uwb_link,0.0,0.0,0.0218148850346,0.99976202708,0.0,0.0,0.0,0.0,0.0,0.0,0.0,0.0,0.0,-0.116511,-0.059585,0.055861,0.0,0.0,0.0,0.0,0.0,0.0,0.0,0.0,0.0,1.38291,2.337549,9.515284,0.0,0.0,0.0,0.0,0.0,0.0,0.0,0.0,0.0
1682488165055547710,455,1682488165052864074,imu_of_uwb_link,0.0,0.0,0.0218148850346,0.99976202708,0.0,0.0,0.0,0.0,0.0,0.0,0.0,0.0,0.0,0.797486,0.060117,-0.09523,0.0,0.0,0.0,0.0,0.0,0.0,0.0,0.0,0.0,-0.882861,1.811182,10.541699,0.0,0.0,0.0,0.0,0.0,0.0,0.0,0.0,0.0
1682488165305357993,456,1682488165302498102,imu_of_uwb_link,0.0,0.0,0.0218148850346,0.99976202708,0.0,0.0,0.0,0.0,0.0,0.0,0.0,0.0,0.0,0.532012,0.169712,-0.237809,0.0,0.0,0.0,0.0,0.0,0.0,0.0,0.0,0.0,-1.411621,1.46665,10.060791,0.0,0.0,0.0,0.0,0.0,0.0,0.0,0.0,0.0
1682488165554984628,457,1682488165552746057,imu_of_uwb_link,0.0,0.0,0.0218148850346,0.99976202708,0.0,0.0,0.0,0.0,0.0,0.0,0.0,0.0,0.0,-0.257494,-0.047349,0.236213,0.0,0.0,0.0,0.0,0.0,0.0,0.0,0.0,0.0,0.256006,0.605322,8.814258,0.0,0.0,0.0,0.0,0.0,0.0,0.0,0.0,0.0
1682488165805626280,458,1682488165803188085,imu_of_uwb_link,0.0,0.0,0.0218148850346,0.99976202708,0.0,0.0,0.0,0.0,0.0,0.0,0.0,0.0,0.0,0.184076,0.183544,-0.042029,0.0,0.0,0.0,0.0,0.0,0.0,0.0,0.0,0.0,0.516797,3.026611,9.144434,0.0,0.0,0.0,0.0,0.0,0.0,0.0,0.0,0.0
1682488166054269929,459,1682488166052660942,imu_of_uwb_link,0.0,0.0,0.0218148850346,0.99976202708,0.0,0.0,0.0,0.0,0.0,0.0,0.0,0.0,0.0,-0.488387,-0.372941,0.19578,0.0,0.0,0.0,0.0,0.0,0.0,0.0,0.0,0.0,1.071875,1.126904,9.314306,0.0,0.0,0.0,0.0,0.0,0.0,0.0,0.0,0.0
1682488166304929238,460,1682488166303683042,imu_of_uwb_link,0.0,0.0,0.0218148850346,0.99976202708,0.0,0.0,0.0,0.0,0.0,0.0,0.0,0.0,0.0,-0.003192,-0.067566,-0.179288,0.0,0.0,0.0,0.0,0.0,0.0,0.0,0.0,0.0,0.004785,1.445117,9.780859,0.0,0.0,0.0,0.0,0.0,0.0,0.0,0.0,0.0
1682488166556546845,461,1682488166553508043,imu_of_uwb_link,0.0,0.0,0.0218148850346,0.99976202708,0.0,0.0,0.0,0.0,0.0,0.0,0.0,0.0,0.0,-0.002128,-0.19046,-0.110659,0.0,0.0,0.0,0.0,0.0,0.0,0.0,0.0,0.0,-0.468945,0.375635,9.910059,0.0,0.0,0.0,0.0,0.0,0.0,0.0,0.0,0.0
1682488166803622862,462,1682488166802586078,imu_of_uwb_link,0.0,0.0,0.0218148850346,0.99976202708,0.0,0.0,0.0,0.0,0.0,0.0,0.0,0.0,0.0,0.192056,-0.074482,0.029261,0.0,0.0,0.0,0.0,0.0,0.0,0.0,0.0,0.0,0.272754,1.100586,9.237744,0.0,0.0,0.0,0.0,0.0,0.0,0.0,0.0,0.0
1682488167054280712,463,1682488167053205966,imu_of_uwb_link,0.0,0.0,0.0218148850346,0.99976202708,0.0,0.0,0.0,0.0,0.0,0.0,0.0,0.0,0.0,0.130343,0.479343,-0.310163,0.0,0.0,0.0,0.0,0.0,0.0,0.0,0.0,0.0,1.162793,2.232275,6.919336,0.0,0.0,0.0,0.0,0.0,0.0,0.0,0.0,0.0
1682488167305074398,464,1682488167302665948,imu_of_uwb_link,0.0,0.0,0.0218148850346,0.99976202708,0.0,0.0,0.0,0.0,0.0,0.0,0.0,0.0,0.0,-0.059053,0.09523,0.08991,0.0,0.0,0.0,0.0,0.0,0.0,0.0,0.0,0.0,-0.957031,0.375635,11.541797,0.0,0.0,0.0,0.0,0.0,0.0,0.0,0.0,0.0
1682488167554180815,465,1682488167552870035,imu_of_uwb_link,0.0,0.0,0.0218148850346,0.99976202708,0.0,0.0,0.0,0.0,0.0,0.0,0.0,0.0,0.0,-0.15588,-0.192588,0.019152,0.0,0.0,0.0,0.0,0.0,0.0,0.0,0.0,0.0,1.191504,-0.471338,9.66123,0.0,0.0,0.0,0.0,0.0,0.0,0.0,0.0,0.0
1682488167805534563,466,1682488167802700996,imu_of_uwb_link,0.0,0.0,0.0218148850346,0.99976202708,0.0,0.0,0.0,0.0,0.0,0.0,0.0,0.0,0.0,0.001064,-0.01064,-0.00266,0.0,0.0,0.0,0.0,0.0,0.0,0.0,0.0,0.0,0.598145,0.131592,9.589453,0.0,0.0,0.0,0.0,0.0,0.0,0.0,0.0,0.0
1682488168054172326,467,1682488168052907943,imu_of_uwb_link,0.0,0.0,0.0218148850346,0.99976202708,0.0,0.0,0.0,0.0,0.0,0.0,0.0,0.0,0.0,0.00532,-0.017556,-0.004256,0.0,0.0,0.0,0.0,0.0,0.0,0.0,0.0,0.0,0.882861,0.145947,9.589453,0.0,0.0,0.0,0.0,0.0,0.0,0.0,0.0,0.0
1682488168305017106,468,1682488168303270101,imu_of_uwb_link,0.0,0.0,0.0218148850346,0.99976202708,0.0,0.0,0.0,0.0,0.0,0.0,0.0,0.0,0.0,0.0,0.0,0.0,0.0,0.0,0.0,0.0,0.0,0.0,0.0,0.0,0.0,0.777588,0.0933,0.0,0.0,0.0,0.0,0.0,0.0,0.0,0.0,0.0,0.0
1682488168553856279,469,1682488168552714109,imu_of_uwb_link,0.0,0.0,0.0218148850346,0.99976202708,0.0,0.0,0.0,0.0,0.0,0.0,0.0,0.0,0.0,0.01064,0.002128,-0.00532,0.0,0.0,0.0,0.0,0.0,0.0,0.0,0.0,0.0,0.839795,0.196191,9.57749,0.0,0.0,0.0,0.0,0.0,0.0,0.0,0.0,0.0
1682488168805236850,470,1682488168803189039,imu_of_uwb_link,0.0,0.0,0.0218148850346,0.99976202708,0.0,0.0,0.0,0.0,0.0,0.0,0.0,0.0,0.0,-0.006916,0.040433,-0.012236,0.0,0.0,0.0,0.0,0.0,0.0,0.0,0.0,0.0,1.033594,-0.002393,9.496142,0.0,0.0,0.0,0.0,0.0,0.0,0.0,0.0,0.0
1682488169054207952,471,1682488169053174972,imu_of_uwb_link,0.0,0.0,0.0218148850346,0.99976202708,0.0,0.0,0.0,0.0,0.0,0.0,0.0,0.0,0.0,-0.00532,-0.026601,-0.003192,0.0,0.0,0.0,0.0,0.0,0.0,0.0,0.0,0.0,0.693848,-0.078955,9.625341,0.0,0.0,0.0,0.0,0.0,0.0,0.0,0.0,0.0
1682488169305617586,472,1682488169302783012,imu_of_uwb_link,0.0,0.0,0.0218148850346,0.99976202708,0.0,0.0,0.0,0.0,0.0,0.0,0.0,0.0,0.0,0.012236,-0.008512,-0.003192,0.0,0.0,0.0,0.0,0.0,0.0,0.0,0.0,0.0,0.823047,0.114844,9.584668,0.0,0.0,0.0,0.0,0.0,0.0,0.0,0.0,0.0
